timestamp,yaw,pitch,roll,raw accel x,raw accel y,raw accel z,raw gyro x,raw gyro y,raw gyro z,filtered accel x,filtered accel y,filtered accel z,filtered gyro x,filtered gyro y,filtered gyro z,angle out yaw,angle out pitch,angle out roll,rate out yaw,rate out pitch,rate out roll,motor 1,motor 2 ,motor 3,motor 4,mag heading,throttle,voltage
24235695,21.15,1.29,-1.25,0.01,-0.02,1,0.02,-0.1,0.02,0,-0.02,1,-0.01,-0.04,-0.04,0,-0.68,0.67,-0.05,-2.54,2.52,1020.05,1000,1000,1000,26.1,0,3.72
24272526,21.21,1.29,-1.25,0.01,-0.02,1,0.08,0.02,0.02,0,-0.02,1,-0.01,-0.04,-0.04,0,-0.68,0.67,-0.05,-2.53,2.52,1020.04,1000,1000,1000,28.56,0,3.74
24275845,21.21,1.28,-1.25,0.01,-0.02,1,0.02,-0.04,-0.04,0,-0.02,1,-0.01,-0.04,-0.04,0,-0.68,0.67,-0.05,-2.53,2.52,1020.04,1000,1000,1000,28.56,0,3.73
24327085,21.22,1.28,-1.25,0.01,-0.02,1,0.08,-0.04,-0.04,0,-0.02,1,-0.01,-0.04,-0.04,0,-0.68,0.67,-0.05,-2.53,2.52,1020.03,1000,1000,1000,25.48,0,3.74
24332101,21.27,1.27,-1.25,0.01,-0.02,1,0.08,-0.1,-0.04,0,-0.02,1,-0.01,-0.04,-0.04,0,-0.68,0.67,-0.05,-2.53,2.52,1020.02,1000,1000,1000,26.92,0,3.74
24335279,21.27,1.27,-1.25,0.01,-0.02,0.99,-0.04,-0.04,0.02,0,-0.02,1,-0.01,-0.04,-0.04,0,-0.68,0.67,-0.05,-2.53,2.52,1020.02,1000,1000,1000,26.92,0,3.72
24338806,21.27,1.27,-1.25,0.01,-0.02,1,0.02,-0.04,0.02,0,-0.02,1,-0.01,-0.04,-0.04,0,-0.68,0.67,-0.05,-2.53,2.52,1020.02,1000,1000,1000,24.78,0,3.73
24340041,21.27,1.27,-1.25,0.01,-0.02,1,0.02,-0.04,-0.04,0,-0.02,1,-0.01,-0.04,-0.04,0,-0.68,0.67,-0.05,-2.53,2.52,1020.01,1000,1000,1000,24.78,0,3.73
24341069,21.27,1.27,-1.25,0.01,-0.02,1,0.02,-0.04,-0.04,0,-0.02,1,-0.01,-0.04,-0.04,0,-0.68,0.67,-0.05,-2.53,2.52,1020.01,1000,1000,1000,24.78,0,3.73
24344635,21.28,1.27,-1.25,0.01,-0.02,1,0.02,-0.04,0.02,0,-0.02,1,-0.01,-0.04,-0.04,0,-0.68,0.67,-0.05,-2.53,2.52,1020.01,1000,1000,1000,26.11,0,3.73
24345966,21.28,1.27,-1.25,0.01,-0.02,1,-0.04,-0.04,-0.04,0,-0.02,1,-0.01,-0.04,-0.04,0,-0.68,0.67,-0.05,-2.53,2.52,1020.01,1000,1000,1000,26.11,0,3.73
24347005,21.28,1.27,-1.25,0.01,-0.02,1,-0.04,-0.04,-0.04,0,-0.02,1,-0.01,-0.04,-0.03,0,-0.68,0.67,-0.05,-2.53,2.52,1020.01,1000,1000,1000,26.11,0,3.72
24350516,21.28,1.27,-1.25,0.01,-0.02,1,-0.04,-0.04,0.02,0,-0.02,1,-0.01,-0.04,-0.03,0,-0.68,0.67,-0.05,-2.53,2.52,1020.01,1000,1000,1000,26.11,0,3.73
24351585,21.28,1.27,-1.25,0.01,-0.02,1,0.02,-0.04,-0.04,0,-0.02,1,-0.01,-0.04,-0.03,0,-0.68,0.67,-0.05,-2.53,2.52,1020.01,1000,1000,1000,26.11,0,3.75
24352862,21.29,1.27,-1.25,0.01,-0.02,1,0.08,0.02,-0.04,0,-0.02,1,-0.01,-0.04,-0.03,0,-0.68,0.67,-0.05,-2.53,2.52,1020.01,1000,1000,1000,26.11,0,3.73
24353885,21.29,1.27,-1.25,0.01,-0.02,1,0.08,-0.04,-0.04,0,-0.02,1,-0.01,-0.04,-0.03,0,-0.68,0.67,-0.05,-2.53,2.52,1020,1000,1000,1000,26.11,0,3.73
24357340,21.29,1.26,-1.25,0.01,-0.02,1,0.08,-0.04,-0.04,0,-0.02,1,-0.01,-0.04,-0.03,0,-0.68,0.67,-0.05,-2.52,2.52,1020,1000,1000,1000,27.15,0,3.76
24358397,21.29,1.26,-1.25,0.01,-0.02,1,0.08,-0.1,-0.04,0,-0.02,1,-0.01,-0.04,-0.03,0,-0.68,0.67,-0.05,-2.52,2.52,1020,1000,1000,1000,27.15,0,3.73
24359753,21.29,1.26,-1.25,0.01,-0.02,1,-0.04,-0.04,0.08,0,-0.02,1,-0.01,-0.04,-0.02,0,-0.68,0.67,-0.05,-2.52,2.52,1020,1000,1000,1000,27.15,0,3.73
24363236,21.3,1.26,-1.25,0.01,-0.02,1,0.02,-0.04,-0.04,0,-0.02,1,-0.01,-0.04,-0.02,0,-0.68,0.67,-0.05,-2.52,2.52,1020,1000,1000,1000,25.74,0,3.72
24364278,21.3,1.26,-1.25,0.01,-0.02,1,-0.04,-0.04,-0.04,0,-0.02,1,-0.01,-0.04,-0.02,0,-0.68,0.67,-0.05,-2.52,2.52,1020,1000,1000,1000,25.74,0,3.73
24365684,21.3,1.26,-1.25,0.01,-0.02,1,-0.04,0.02,0.02,0,-0.02,1,-0.01,-0.04,-0.02,0,-0.68,0.67,-0.05,-2.52,2.52,1020,1000,1000,1000,25.74,0,3.75
24369138,21.3,1.26,-1.25,0.01,-0.02,1,-0.04,-0.04,-0.1,0,-0.02,1,-0.01,-0.04,-0.02,0,-0.68,0.67,-0.05,-2.52,2.52,1020,1000,1000,1000,28.28,0,3.73
24370195,21.3,1.26,-1.25,0.01,-0.02,1,0.02,-0.04,-0.1,0,-0.02,1,-0.01,-0.04,-0.02,0,-0.68,0.67,-0.05,-2.52,2.52,1020,1000,1000,1000,28.28,0,3.73
24371623,21.31,1.26,-1.25,0.01,-0.02,1,0.08,0.08,-0.04,0,-0.02,1,-0.01,-0.04,-0.03,0,-0.68,0.67,-0.05,-2.52,2.52,1020,1000,1000,1000,28.28,0,3.73
24375306,21.31,1.26,-1.25,0.01,-0.02,1,0.02,-0.04,0.02,0,-0.02,1,-0.01,-0.04,-0.03,0,-0.68,0.67,-0.05,-2.52,2.52,1019.99,1000,1000,1000,28.28,0,3.73
24378582,21.32,1.26,-1.25,0.01,-0.02,1,0.02,-0.04,0.02,0,-0.02,1,-0.01,-0.04,-0.03,0,-0.68,0.67,-0.05,-2.52,2.52,1019.99,1000,1000,1000,28.28,0,3.73
24383503,21.32,1.26,-1.25,0.01,-0.02,1,-0.04,-0.04,-0.04,0,-0.02,1,-0.01,-0.04,-0.03,0,-0.68,0.67,-0.05,-2.52,2.52,1019.99,1000,1000,1000,23.89,0,3.72
24386715,21.32,1.26,-1.25,0.01,-0.02,1,0.02,-0.04,-0.04,0,-0.02,1,-0.01,-0.04,-0.03,0,-0.68,0.67,-0.05,-2.52,2.52,1019.99,1000,1000,1000,23.89,0,3.73
24391670,21.33,1.26,-1.25,0.01,-0.02,1,-0.04,-0.04,0.02,0,-0.02,1,-0.01,-0.04,-0.03,0,-0.68,0.67,-0.05,-2.52,2.52,1019.99,1000,1000,1000,27.88,0,3.73
24392744,21.33,1.26,-1.25,0.01,-0.02,1,0.02,-0.04,0.02,0,-0.02,1,-0.01,-0.04,-0.03,0,-0.68,0.67,-0.05,-2.52,2.52,1019.99,1000,1000,1000,27.88,0,3.73
24407209,21.33,1.26,-1.25,0.01,-0.02,1,0.02,-0.04,-0.1,0,-0.02,1,-0.01,-0.04,-0.03,0,-0.68,0.67,-0.05,-2.52,2.52,1019.99,1000,1000,1000,28.34,0,3.73
24410766,21.35,1.25,-1.25,0.01,-0.02,1,0.02,-0.04,-0.04,0,-0.02,1,-0.01,-0.04,-0.03,0,-0.67,0.67,-0.05,-2.52,2.52,1019.98,1000,1000,1000,27.18,0,3.74
24412049,21.35,1.25,-1.25,0.01,-0.02,1,-0.04,-0.04,0.02,0,-0.02,1,-0.01,-0.04,-0.03,0,-0.67,0.67,-0.05,-2.52,2.52,1019.98,1000,1000,1000,27.18,0,3.84
24413072,21.35,1.25,-1.25,0.01,-0.02,1,-0.04,0.02,-0.04,0,-0.02,1,-0.01,-0.04,-0.03,0,-0.67,0.67,-0.05,-2.52,2.52,1019.98,1000,1000,1000,27.18,0,3.73
24416518,21.36,1.25,-1.25,0.01,-0.02,1,0.02,-0.04,0.02,0,-0.02,1,-0.01,-0.04,-0.03,0,-0.67,0.67,-0.05,-2.52,2.52,1019.98,1000,1000,1000,28.02,0,3.67
24417587,21.36,1.25,-1.25,0.01,-0.02,1,0.02,0.02,0.02,0,-0.02,1,-0.01,-0.04,-0.03,0,-0.67,0.67,-0.05,-2.52,2.52,1019.98,1000,1000,1000,28.02,0,3.73
24418989,21.36,1.25,-1.25,0.01,-0.02,1,-0.04,-0.04,-0.04,0,-0.02,1,-0.01,-0.04,-0.03,0,-0.67,0.67,-0.05,-2.52,2.52,1019.98,1000,1000,1000,28.02,0,3.72
24422432,21.36,1.25,-1.25,0.01,-0.02,1,-0.04,-0.04,-0.1,0,-0.02,1,-0.01,-0.04,-0.03,0,-0.67,0.67,-0.05,-2.52,2.52,1019.98,1000,1000,1000,28.19,0,3.73
24423476,21.37,1.25,-1.25,0.01,-0.02,1,-0.04,-0.04,-0.04,0,-0.02,1,-0.01,-0.04,-0.03,0,-0.67,0.67,-0.05,-2.52,2.52,1019.98,1000,1000,1000,28.19,0,3.73
24424845,21.37,1.25,-1.25,0.01,-0.02,1,0.08,-0.04,-0.04,0,-0.02,1,-0.01,-0.04,-0.03,0,-0.67,0.67,-0.05,-2.52,2.52,1019.98,1000,1000,1000,28.19,0,3.73
24425864,21.37,1.25,-1.25,0.01,-0.02,1,0.08,0.02,-0.04,0,-0.02,1,-0.01,-0.03,-0.03,0,-0.67,0.67,-0.05,-2.52,2.52,1019.98,1000,1000,1000,28.19,0,3.73
24429322,21.37,1.25,-1.25,0.01,-0.02,1,0.02,0.02,0.02,0,-0.02,1,-0.01,-0.03,-0.04,0,-0.67,0.68,-0.05,-2.52,2.52,1019.97,1000,1000,1000,27.14,0,3.73
24457553,21.4,1.24,-1.25,0.01,-0.02,1,-0.04,-0.04,-0.16,0,-0.02,1,-0.01,-0.03,-0.04,0,-0.67,0.68,-0.05,-2.52,2.52,1019.96,1000,1000,1000,27.26,0,3.74
24458560,21.41,1.24,-1.25,0.01,-0.02,1,-0.04,0.02,-0.04,0,-0.02,1,-0.01,-0.03,-0.04,0,-0.67,0.68,-0.05,-2.52,2.52,1019.96,1000,1000,1000,27.26,0,3.73
24460642,21.41,1.24,-1.25,0.01,-0.02,1,-0.04,0.08,-0.04,0,-0.02,1,-0.01,-0.03,-0.04,0,-0.67,0.68,-0.05,-2.52,2.52,1019.96,1000,1000,1000,27.26,0,3.73
24474723,21.42,1.24,-1.25,0.01,-0.02,1,-0.04,0.02,0.02,0,-0.02,1,-0.01,-0.03,-0.04,0,-0.67,0.68,-0.05,-2.52,2.52,1019.96,1000,1000,1000,24.98,0,3.77
24488920,21.44,1.23,-1.25,0.01,-0.02,1,0.02,0.02,0.02,0,-0.02,1,-0.01,-0.03,-0.04,0,-0.67,0.68,-0.05,-2.51,2.52,1019.96,1000,1000,1000,28.54,0,3.74
24495481,21.44,1.23,-1.25,0.01,-0.02,1,0.02,0.02,-0.04,0,-0.02,1,-0.01,-0.03,-0.04,0,-0.67,0.68,-0.05,-2.51,2.52,1019.95,1000,1000,1000,25.68,0,3.74
24512403,21.45,1.23,-1.25,0.01,-0.02,1,0.02,-0.04,-0.04,0,-0.02,1,-0.01,-0.02,-0.04,0,-0.67,0.68,-0.05,-2.51,2.52,1019.95,1000,1000,1000,26.37,0,3.73
24517469,21.46,1.23,-1.25,0.01,-0.02,1,0.02,0.02,0.02,0,-0.02,1,-0.01,-0.02,-0.04,0,-0.67,0.68,-0.05,-2.51,2.52,1019.95,1000,1000,1000,26.37,0,3.82
24520656,21.47,1.23,-1.25,0.01,-0.02,1,0.08,-0.1,-0.04,0,-0.02,1,-0.01,-0.02,-0.04,0,-0.67,0.68,-0.05,-2.51,2.52,1019.95,1000,1000,1000,26.37,0,3.73
24524269,21.47,1.23,-1.25,0.01,-0.02,1,0.08,-0.04,-0.04,0,-0.02,1,-0.01,-0.02,-0.04,0,-0.67,0.68,-0.05,-2.51,2.52,1019.94,1000,1000,1000,26.72,0,3.73
24525431,21.47,1.23,-1.25,0.01,-0.02,1,0.08,-0.04,-0.04,0,-0.02,1,-0.01,-0.02,-0.04,0,-0.67,0.68,-0.05,-2.51,2.52,1019.94,1000,1000,1000,26.72,0,3.62
24526437,21.47,1.23,-1.25,0.01,-0.02,1,0.02,0.02,-0.04,0,-0.02,1,-0.01,-0.02,-0.04,0,-0.67,0.68,-0.05,-2.51,2.52,1019.94,1000,1000,1000,26.72,0,3.72
24529886,21.48,1.22,-1.25,0.01,-0.02,1,0.02,-0.04,-0.04,0,-0.02,1,-0.01,-0.02,-0.04,0,-0.67,0.68,-0.05,-2.51,2.52,1019.94,1000,1000,1000,28.61,0,3.74
24530930,21.48,1.22,-1.25,0.01,-0.02,1,0.08,-0.04,-0.04,0,-0.02,1,-0.01,-0.02,-0.04,0,-0.67,0.68,-0.05,-2.51,2.52,1019.94,1000,1000,1000,28.61,0,3.73
24531962,21.48,1.22,-1.25,0.01,-0.02,1,0.08,0.02,-0.04,0,-0.02,1,-0.01,-0.01,-0.04,0,-0.67,0.68,-0.05,-2.51,2.52,1019.94,1000,1000,1000,28.61,0,3.73
24536928,21.48,1.22,-1.25,0.01,-0.02,1,0.02,-0.04,0.02,0,-0.02,1,-0.01,-0.01,-0.04,0,-0.67,0.68,-0.05,-2.51,2.52,1019.94,1000,1000,1000,26.81,0,3.73
24537988,21.49,1.22,-1.25,0.01,-0.02,1,0.08,-0.04,-0.04,0,-0.02,1,-0.01,-0.01,-0.04,0,-0.67,0.68,-0.05,-2.51,2.52,1019.94,1000,1000,1000,26.81,0,3.73
24541432,21.49,1.22,-1.25,0.01,-0.02,1,-0.04,-0.04,0.02,0,-0.02,1,-0.01,-0.01,-0.04,0,-0.67,0.68,-0.05,-2.51,2.52,1019.94,1000,1000,1000,27.78,0,3.76
24542485,21.49,1.22,-1.25,0.01,-0.02,1,0.02,0.02,0.02,0,-0.02,1,-0.01,-0.01,-0.04,0,-0.67,0.68,-0.05,-2.51,2.52,1019.94,1000,1000,1000,27.78,0,3.73
24543514,21.49,1.22,-1.25,0.01,-0.02,1,0.02,0.02,0.02,0,-0.02,1,0,-0.01,-0.04,0,-0.67,0.68,-0.05,-2.51,2.52,1019.94,1000,1000,1000,27.78,0,3.8
24544555,21.49,1.22,-1.25,0.01,-0.02,1,-0.04,0.02,-0.04,0,-0.02,1,0,-0.01,-0.04,0,-0.67,0.68,-0.05,-2.51,2.52,1019.94,1000,1000,1000,27.78,0,3.73
24548012,21.5,1.22,-1.25,0.01,-0.02,1,0.02,-0.1,-0.04,0,-0.02,1,0,-0.01,-0.04,0,-0.67,0.68,-0.05,-2.51,2.52,1019.94,1000,1000,1000,26.79,0,3.72
24549137,21.5,1.22,-1.25,0.01,-0.02,1,-0.04,-0.1,-0.04,0,-0.02,1,0,-0.01,-0.04,0,-0.67,0.68,-0.05,-2.51,2.52,1019.94,1000,1000,1000,26.79,0,3.73
24550139,21.5,1.22,-1.25,0.01,-0.02,1,0.02,-0.04,-0.04,0,-0.02,1,0,-0.01,-0.04,0,-0.67,0.68,-0.05,-2.51,2.52,1019.94,1000,1000,1000,26.79,0,3.73
24553701,21.5,1.22,-1.25,0.01,-0.02,1,0.02,-0.04,-0.04,0,-0.02,1,0,-0.01,-0.04,0,-0.67,0.68,-0.05,-2.51,2.52,1019.94,1000,1000,1000,27.83,0,3.73
24554751,21.51,1.22,-1.25,0.01,-0.02,1,0.02,-0.04,-0.04,0,-0.02,1,0,-0.01,-0.04,0,-0.67,0.68,-0.05,-2.51,2.52,1019.94,1000,1000,1000,27.83,0,3.73
24556046,21.51,1.22,-1.25,0.01,-0.02,1,0.02,0.02,-0.04,0,-0.02,1,0.01,-0.01,-0.04,0,-0.67,0.68,-0.05,-2.51,2.52,1019.94,1000,1000,1000,27.83,0,3.77
24559537,21.51,1.22,-1.25,0.01,-0.02,1,0.02,0.02,-0.1,0,-0.02,1,0.01,-0.01,-0.04,0,-0.67,0.68,-0.05,-2.51,2.52,1019.94,1000,1000,1000,31.35,0,3.73
24560580,21.52,1.22,-1.25,0.01,-0.02,1,0.08,-0.04,-0.04,0,-0.02,1,0.01,-0.01,-0.04,0,-0.67,0.68,-0.05,-2.51,2.52,1019.94,1000,1000,1000,31.35,0,3.72
24561966,21.52,1.22,-1.25,0.01,-0.02,1,0.02,0.02,0.02,0,-0.02,1,0.01,-0.01,-0.04,0,-0.67,0.68,-0.05,-2.51,2.52,1019.94,1000,1000,1000,31.35,0,3.72
24565406,21.52,1.22,-1.25,0.01,-0.02,1,0.02,-0.1,-0.04,0,-0.02,1,0.01,-0.02,-0.04,0,-0.67,0.68,-0.05,-2.51,2.52,1019.94,1000,1000,1000,30.58,0,3.73
24566450,21.53,1.22,-1.25,0.01,-0.02,1,0.02,-0.04,-0.04,0,-0.02,1,0.01,-0.02,-0.04,0,-0.67,0.68,-0.05,-2.51,2.52,1019.94,1000,1000,1000,30.58,0,3.73
24567464,21.53,1.22,-1.25,0.01,-0.02,1,0.02,-0.04,-0.04,0,-0.02,1,0.01,-0.02,-0.04,0,-0.67,0.68,-0.05,-2.51,2.52,1019.94,1000,1000,1000,30.58,0,3.72
24568470,21.53,1.22,-1.25,0.01,-0.02,1,-0.04,-0.04,0.02,0,-0.02,1,0.01,-0.02,-0.04,0,-0.67,0.68,-0.05,-2.51,2.52,1019.94,1000,1000,1000,30.58,0,3.69
24571867,21.53,1.22,-1.25,0.01,-0.02,1,-0.04,0.02,0.02,0,-0.02,1,0.01,-0.02,-0.04,0,-0.67,0.68,-0.05,-2.51,2.52,1019.93,1000,1000,1000,29.22,0,3.72
24572922,21.54,1.22,-1.25,0.01,-0.02,1,-0.04,0.02,-0.1,0,-0.02,1,0.01,-0.02,-0.04,0,-0.67,0.68,-0.05,-2.51,2.52,1019.93,1000,1000,1000,29.22,0,3.67
24573956,21.54,1.22,-1.25,0.01,-0.02,1,0.02,-0.04,-0.04,0,-0.02,1,0.01,-0.02,-0.04,0,-0.67,0.68,-0.05,-2.51,2.52,1019.93,1000,1000,1000,29.22,0,3.73
24577404,21.54,1.21,-1.25,0.01,-0.02,1,0.02,0.02,-0.04,0,-0.02,1,0.01,-0.02,-0.04,0,-0.67,0.68,-0.05,-2.51,2.52,1019.93,1000,1000,1000,29.22,0,3.73
24578450,21.54,1.21,-1.25,0.01,-0.02,1,-0.04,0.02,-0.1,0,-0.02,1,0.01,-0.02,-0.04,0,-0.67,0.68,-0.05,-2.51,2.52,1019.93,1000,1000,1000,29.22,0,3.73
24579704,21.55,1.21,-1.25,0.01,-0.02,1,0.02,0.02,-0.04,0,-0.02,1,0.01,-0.02,-0.04,0,-0.67,0.68,-0.05,-2.51,2.52,1019.93,1000,1000,1000,29.22,0,3.73
24580744,21.55,1.21,-1.25,0.01,-0.02,1,0.02,-0.04,0.02,0,-0.02,1,0.01,-0.02,-0.04,0,-0.67,0.68,-0.05,-2.51,2.52,1019.93,1000,1000,1000,29.22,0,3.73
24584220,21.55,1.21,-1.25,0.01,-0.02,1,-0.04,-0.04,0.02,0,-0.02,1,0.01,-0.02,-0.04,0,-0.67,0.68,-0.05,-2.51,2.52,1019.93,1000,1000,1000,26.7,0,3.73
24585281,21.55,1.21,-1.25,0.01,-0.02,1,0.02,0.02,0.02,0,-0.02,1,0,-0.02,-0.04,0,-0.67,0.68,-0.05,-2.51,2.52,1019.93,1000,1000,1000,26.7,0,3.73
24586628,21.55,1.21,-1.25,0.01,-0.02,1,0.08,0.02,-0.04,0,-0.02,1,0,-0.02,-0.04,0,-0.67,0.68,-0.05,-2.51,2.52,1019.93,1000,1000,1000,26.7,0,3.73
24590304,21.56,1.21,-1.25,0.01,-0.02,1,0.02,0.02,0.02,0,-0.02,1,0,-0.02,-0.04,0,-0.67,0.67,-0.05,-2.51,2.52,1019.93,1000,1000,1000,24.4,0,3.73
24593634,21.56,1.21,-1.25,0.01,-0.02,1,-0.04,-0.1,0.02,0,-0.02,1,0,-0.02,-0.04,0,-0.67,0.67,-0.05,-2.51,2.52,1019.93,1000,1000,1000,24.4,0,3.74
24598572,21.56,1.21,-1.25,0.01,-0.02,1,0.08,-0.04,-0.04,0,-0.02,1,0,-0.02,-0.04,0,-0.67,0.67,-0.05,-2.51,2.52,1019.92,1000,1000,1000,27.17,0,3.73
24612733,21.57,1.21,-1.25,0.01,-0.02,1,0.02,-0.1,-0.04,0,-0.02,1,0,-0.02,-0.04,0,-0.67,0.67,-0.05,-2.51,2.52,1019.92,1000,1000,1000,27.17,0,3.73
24617726,21.58,1.21,-1.25,0.01,-0.02,1,0.08,-0.04,-0.1,0,-0.02,1,0,-0.02,-0.04,0,-0.67,0.67,-0.05,-2.5,2.52,1019.92,1000,1000,1000,26.81,0,3.73
24620863,21.59,1.21,-1.25,0.01,-0.02,1,-0.04,0.02,0.02,0,-0.02,1,0,-0.02,-0.04,0,-0.67,0.67,-0.05,-2.5,2.52,1019.92,1000,1000,1000,26.81,0,3.73
24624400,21.59,1.2,-1.25,0.01,-0.02,1,0.02,-0.04,0.02,0,-0.02,1,0,-0.02,-0.04,0,-0.67,0.67,-0.05,-2.5,2.52,1019.92,1000,1000,1000,28.08,0,3.73
24625435,21.59,1.2,-1.25,0.01,-0.02,1,-0.04,0.02,-0.04,0,-0.02,1,0,-0.01,-0.04,0,-0.67,0.67,-0.05,-2.5,2.52,1019.92,1000,1000,1000,28.08,0,3.73
24626453,21.59,1.2,-1.25,0.01,-0.02,1,0.02,0.02,-0.1,0,-0.02,1,0,-0.01,-0.04,0,-0.67,0.67,-0.05,-2.5,2.52,1019.92,1000,1000,1000,28.08,0,3.73
24629849,21.6,1.2,-1.25,0.01,-0.02,1,0.02,0.02,-0.04,0,-0.02,1,0,-0.01,-0.04,0,-0.67,0.67,-0.05,-2.5,2.52,1019.91,1000,1000,1000,26.57,0,3.73
24631028,21.6,1.2,-1.25,0.01,-0.02,1,0.08,0.02,-0.1,0,-0.02,1,0,-0.01,-0.04,0,-0.67,0.67,-0.05,-2.5,2.52,1019.91,1000,1000,1000,26.57,0,3.73
24632047,21.6,1.2,-1.25,0.01,-0.02,1,0.02,0.02,-0.04,0,-0.02,1,0,-0.01,-0.04,0,-0.67,0.67,-0.05,-2.5,2.52,1019.91,1000,1000,1000,26.57,0,3.73
24635485,21.6,1.2,-1.25,0.01,-0.02,1,0.02,-0.04,-0.04,0,-0.02,1,0,-0.01,-0.04,0,-0.67,0.67,-0.05,-2.5,2.52,1019.91,1000,1000,1000,26.97,0,3.73
24636556,21.6,1.2,-1.25,0.01,-0.02,1,0.02,-0.04,0.02,0,-0.02,1,0,-0.01,-0.04,0,-0.67,0.67,-0.05,-2.5,2.52,1019.91,1000,1000,1000,26.97,0,3.73
24637943,21.6,1.2,-1.25,0.01,-0.02,1,0.02,-0.04,-0.04,0,-0.02,1,0,-0.01,-0.04,0,-0.67,0.67,-0.05,-2.5,2.52,1019.91,1000,1000,1000,26.97,0,3.72
24641409,21.61,1.2,-1.25,0.01,-0.02,1,0.02,-0.04,-0.04,0,-0.02,1,0,-0.01,-0.04,0,-0.67,0.67,-0.05,-2.5,2.52,1019.91,1000,1000,1000,27.36,0,3.73
24642763,21.61,1.2,-1.25,0.01,-0.02,1,-0.04,0.02,-0.1,0,-0.02,1,0,-0.01,-0.04,0,-0.67,0.67,-0.05,-2.5,2.52,1019.91,1000,1000,1000,27.36,0,3.72
24644386,21.61,1.2,-1.25,0.01,-0.02,1,0.08,-0.04,-0.1,0,-0.02,1,0,-0.01,-0.04,0,-0.67,0.67,-0.05,-2.5,2.52,1019.91,1000,1000,1000,27.36,0,3.72
24647932,21.62,1.2,-1.25,0.01,-0.02,1,-0.04,0.02,-0.04,0,-0.02,1,0,-0.01,-0.04,0,-0.67,0.67,-0.05,-2.5,2.52,1019.91,1000,1000,1000,28.02,0,3.73
24648981,21.62,1.2,-1.25,0.01,-0.02,1,0.08,-0.04,0.02,0,-0.02,1,0,-0.01,-0.04,0,-0.67,0.67,-0.05,-2.5,2.52,1019.91,1000,1000,1000,28.02,0,3.73
24650040,21.62,1.2,-1.25,0.01,-0.02,1,0.02,-0.04,0.02,0,-0.02,1,0,-0.01,-0.04,0,-0.67,0.67,-0.05,-2.5,2.52,1019.91,1000,1000,1000,28.02,0,3.73
24653507,21.62,1.2,-1.25,0.01,-0.02,1,0.02,-0.04,0.02,0,-0.02,1,0,-0.01,-0.04,0,-0.67,0.67,-0.05,-2.5,2.52,1019.91,1000,1000,1000,28.02,0,3.73
24654687,21.62,1.2,-1.25,0.01,-0.02,1,-0.04,0.02,-0.04,0,-0.02,1,0,-0.02,-0.04,0,-0.67,0.67,-0.05,-2.5,2.52,1019.91,1000,1000,1000,28.02,0,3.75
24655743,21.63,1.2,-1.25,0.01,-0.02,1,-0.04,-0.1,-0.1,0,-0.02,1,0,-0.02,-0.04,0,-0.67,0.67,-0.05,-2.5,2.52,1019.91,1000,1000,1000,28.02,0,3.73
24656791,21.63,1.2,-1.25,0.01,-0.02,1,0.02,-0.1,-0.1,0,-0.02,1,0,-0.02,-0.04,0,-0.67,0.67,-0.05,-2.5,2.52,1019.91,1000,1000,1000,28.02,0,3.73
24660266,21.63,1.2,-1.25,0.01,-0.02,1,0.02,-0.1,0.02,0,-0.02,1,0,-0.02,-0.04,0,-0.67,0.67,-0.05,-2.5,2.52,1019.9,1000,1000,1000,26.67,0,3.67
24661334,21.63,1.2,-1.25,0.01,-0.02,1,0.02,-0.04,0.02,0,-0.02,1,0,-0.02,-0.04,0,-0.67,0.67,-0.05,-2.5,2.52,1019.9,1000,1000,1000,26.67,0,3.73
24662602,21.63,1.2,-1.25,0.01,-0.02,1,0.02,-0.04,-0.04,0,-0.02,1,0,-0.02,-0.04,0,-0.67,0.67,-0.05,-2.5,2.52,1019.9,1000,1000,1000,26.67,0,3.73
24666095,21.64,1.2,-1.25,0.01,-0.02,1,0.02,-0.04,-0.1,0,-0.02,1,0,-0.02,-0.04,0,-0.67,0.67,-0.05,-2.5,2.52,1019.9,1000,1000,1000,28.2,0,3.73
24667141,21.64,1.2,-1.25,0.01,-0.02,1,0.02,-0.04,-0.1,0,-0.02,1,0,-0.02,-0.04,0,-0.67,0.67,-0.05,-2.5,2.52,1019.9,1000,1000,1000,28.2,0,3.73
24668512,21.64,1.2,-1.25,0.01,-0.02,1,0.02,0.02,0.02,0,-0.02,1,0,-0.02,-0.04,0,-0.67,0.67,-0.05,-2.5,2.52,1019.9,1000,1000,1000,28.2,0,3.73
24671996,21.64,1.19,-1.25,0.01,-0.02,1,0.02,0.02,-0.04,0,-0.02,1,-0.01,-0.02,-0.04,0,-0.67,0.67,-0.05,-2.5,2.52,1019.9,1000,1000,1000,27.08,0,3.72
24673045,21.64,1.19,-1.25,0.01,-0.02,1,0.02,0.02,-0.04,0,-0.02,1,-0.01,-0.03,-0.04,0,-0.67,0.67,-0.05,-2.5,2.52,1019.9,1000,1000,1000,27.08,0,3.73
24674444,21.65,1.19,-1.25,0.01,-0.02,1,0.02,-0.04,0.02,0,-0.02,1,-0.01,-0.03,-0.04,0,-0.67,0.67,-0.05,-2.5,2.52,1019.9,1000,1000,1000,27.08,0,3.73
24677854,21.65,1.19,-1.25,0.01,-0.02,1,-0.04,-0.04,0.02,0,-0.02,1,-0.01,-0.03,-0.04,0,-0.67,0.67,-0.05,-2.5,2.52,1019.89,1000,1000,1000,27.08,0,3.83
24678892,21.65,1.19,-1.25,0.01,-0.02,1,-0.04,-0.04,0.02,0,-0.02,1,-0.01,-0.03,-0.04,0,-0.67,0.67,-0.05,-2.5,2.52,1019.89,1000,1000,1000,27.08,0,3.73
24679914,21.65,1.19,-1.25,0.01,-0.02,1,-0.04,0.02,0.02,0,-0.02,1,-0.01,-0.03,-0.04,0,-0.67,0.67,-0.05,-2.5,2.52,1019.89,1000,1000,1000,27.08,0,3.64
24680916,21.65,1.19,-1.25,0.01,-0.02,1,-0.04,0.02,0.02,0,-0.02,1,-0.01,-0.03,-0.04,0,-0.67,0.67,-0.05,-2.5,2.52,1019.89,1000,1000,1000,27.08,0,3.73
24684342,21.66,1.19,-1.25,0.01,-0.02,1,0.02,0.02,-0.04,0,-0.02,1,-0.01,-0.03,-0.04,0,-0.67,0.67,-0.05,-2.5,2.52,1019.89,1000,1000,1000,25.82,0,3.74
24685380,21.66,1.19,-1.25,0.01,-0.02,1,-0.04,-0.04,-0.04,0,-0.02,1,-0.01,-0.03,-0.04,0,-0.67,0.67,-0.05,-2.5,2.52,1019.89,1000,1000,1000,25.82,0,3.73
24686392,21.66,1.19,-1.25,0.01,-0.02,1,-0.04,-0.04,-0.1,0,-0.02,1,-0.01,-0.03,-0.04,0,-0.67,0.67,-0.05,-2.5,2.52,1019.89,1000,1000,1000,25.82,0,3.73
24689799,21.66,1.19,-1.25,0.01,-0.02,1,0.02,-0.04,0.08,0,-0.02,1,-0.01,-0.03,-0.04,0,-0.67,0.67,-0.05,-2.5,2.52,1019.89,1000,1000,1000,26.99,0,3.73
24691053,21.66,1.19,-1.25,0.01,-0.02,1,0.02,-0.1,0.02,0,-0.02,1,-0.01,-0.03,-0.04,0,-0.67,0.67,-0.05,-2.5,2.52,1019.89,1000,1000,1000,26.99,0,3.73
24694331,21.67,1.19,-1.25,0.01,-0.02,1,-0.1,-0.04,-0.04,0,-0.02,1,-0.01,-0.03,-0.03,0,-0.67,0.67,-0.05,-2.5,2.52,1019.89,1000,1000,1000,26.99,0,3.73
24699286,21.67,1.19,-1.25,0.01,-0.02,1,-0.04,-0.04,-0.04,0,-0.02,1,-0.01,-0.03,-0.03,0,-0.67,0.67,-0.05,-2.5,2.52,1019.88,1000,1000,1000,26.17,0,3.72
24702587,21.67,1.19,-1.25,0.01,-0.02,1,0.02,0.02,-0.04,0,-0.02,1,-0.01,-0.03,-0.03,0,-0.67,0.67,-0.05,-2.5,2.52,1019.88,1000,1000,1000,26.17,0,3.73
24718736,21.68,1.19,-1.25,0.01,-0.02,1,0.02,-0.04,-0.04,0,-0.02,1,-0.01,-0.03,-0.03,0,-0.67,0.67,-0.05,-2.5,2.52,1019.88,1000,1000,1000,26.24,0,3.74
24722350,21.69,1.18,-1.25,0.01,-0.02,1,0.02,-0.04,-0.04,0,-0.02,1,-0.01,-0.03,-0.03,0,-0.67,0.67,-0.05,-2.5,2.52,1019.88,1000,1000,1000,26.48,0,3.73
24723393,21.69,1.18,-1.25,0.01,-0.02,1,0.02,-0.04,-0.04,0,-0.02,1,-0.01,-0.03,-0.03,0,-0.67,0.67,-0.05,-2.5,2.52,1019.87,1000,1000,1000,26.48,0,3.73
24724731,21.69,1.18,-1.25,0.01,-0.02,1,0.08,0.02,0.02,0,-0.02,1,-0.01,-0.02,-0.03,0,-0.67,0.67,-0.05,-2.49,2.52,1019.87,1000,1000,1000,26.48,0,3.72
24728202,21.7,1.18,-1.25,0.01,-0.02,1,0.02,-0.04,-0.04,0,-0.02,1,-0.01,-0.02,-0.03,0,-0.67,0.67,-0.05,-2.49,2.52,1019.87,1000,1000,1000,26.58,0,3.72
24729259,21.7,1.18,-1.25,0.01,-0.02,1,0.02,0.02,-0.04,0,-0.02,1,-0.01,-0.02,-0.03,0,-0.67,0.67,-0.05,-2.49,2.52,1019.87,1000,1000,1000,26.58,0,3.73
24730690,21.7,1.18,-1.25,0.01,-0.02,1,-0.04,-0.04,0.08,0,-0.02,1,-0.01,-0.02,-0.03,0,-0.67,0.67,-0.05,-2.49,2.52,1019.87,1000,1000,1000,26.58,0,3.72
24734222,21.7,1.18,-1.25,0.01,-0.02,1,0.02,-0.1,-0.04,0,-0.02,1,-0.01,-0.02,-0.03,0,-0.66,0.67,-0.05,-2.49,2.52,1019.87,1000,1000,1000,27.69,0,3.73
24735283,21.7,1.18,-1.25,0.01,-0.02,1,-0.04,-0.1,-0.1,0,-0.02,1,-0.01,-0.02,-0.03,0,-0.66,0.67,-0.05,-2.49,2.52,1019.87,1000,1000,1000,27.69,0,3.73
24736594,21.71,1.18,-1.25,0.01,-0.02,1,0.08,0.02,-0.04,0,-0.02,1,-0.01,-0.02,-0.03,0,-0.66,0.67,-0.05,-2.49,2.52,1019.87,1000,1000,1000,27.69,0,3.73
24740113,21.71,1.18,-1.25,0.01,-0.02,1,-0.04,-0.04,-0.04,0,-0.02,1,-0.01,-0.02,-0.03,0,-0.66,0.67,-0.05,-2.49,2.52,1019.87,1000,1000,1000,27.97,0,3.73
24741154,21.71,1.18,-1.25,0.01,-0.02,1,-0.04,-0.04,-0.04,0,-0.02,1,-0.01,-0.02,-0.03,0,-0.66,0.67,-0.05,-2.49,2.52,1019.87,1000,1000,1000,27.97,0,3.73
24742519,21.71,1.18,-1.25,0.01,-0.02,1,0.02,0.02,-0.04,0,-0.02,1,-0.01,-0.01,-0.03,0,-0.66,0.67,-0.05,-2.49,2.52,1019.87,1000,1000,1000,27.97,0,3.73
24746010,21.72,1.18,-1.25,0.01,-0.02,1,0.02,-0.04,-0.1,0,-0.02,1,-0.01,-0.01,-0.03,0,-0.66,0.67,-0.05,-2.49,2.52,1019.87,1000,1000,1000,28.28,0,3.73
24747050,21.72,1.18,-1.25,0.01,-0.02,1,0.02,0.02,-0.04,0,-0.02,1,-0.01,-0.01,-0.03,0,-0.66,0.67,-0.05,-2.49,2.52,1019.87,1000,1000,1000,28.28,0,3.73
24748407,21.72,1.18,-1.25,0.01,-0.02,1,-0.04,-0.04,-0.1,0,-0.02,1,-0.01,-0.01,-0.03,0,-0.66,0.67,-0.05,-2.49,2.52,1019.87,1000,1000,1000,28.28,0,3.72
24751839,21.73,1.18,-1.25,0.01,-0.02,1,0.08,0.02,0.02,0,-0.02,1,-0.01,-0.01,-0.03,0,-0.66,0.67,-0.05,-2.49,2.52,1019.87,1000,1000,1000,29.78,0,3.72
24752884,21.73,1.18,-1.25,0.01,-0.02,1,0.02,-0.04,0.02,0,-0.02,1,-0.01,-0.01,-0.03,0,-0.66,0.67,-0.05,-2.49,2.52,1019.87,1000,1000,1000,29.78,0,3.73
24753919,21.73,1.18,-1.25,0.01,-0.02,1,0.02,0.02,-0.04,0,-0.02,1,-0.01,-0.01,-0.03,0,-0.66,0.67,-0.05,-2.49,2.52,1019.86,1000,1000,1000,29.78,0,3.73
24757372,21.73,1.18,-1.25,0.01,-0.02,1,0.02,-0.04,0.02,0,-0.02,1,-0.01,-0.01,-0.03,0,-0.66,0.67,-0.05,-2.49,2.52,1019.86,1000,1000,1000,26.25,0,3.72
24758418,21.73,1.18,-1.25,0.01,-0.02,1,0.02,-0.04,0.02,0,-0.02,1,-0.01,-0.01,-0.03,0,-0.66,0.67,-0.05,-2.49,2.52,1019.86,1000,1000,1000,26.25,0,3.73
24759450,21.73,1.18,-1.25,0.01,-0.02,1,0.02,-0.04,-0.04,0,-0.02,1,-0.01,-0.01,-0.04,0,-0.66,0.67,-0.05,-2.49,2.52,1019.86,1000,1000,1000,26.25,0,3.73
24760482,21.73,1.18,-1.25,0.01,-0.02,1,-0.04,0.02,-0.04,0,-0.02,1,-0.01,-0.02,-0.04,0,-0.66,0.67,-0.05,-2.49,2.52,1019.86,1000,1000,1000,26.25,0,3.72
24763952,21.74,1.18,-1.25,0.01,-0.02,1,0.02,0.08,0.02,0,-0.02,1,-0.01,-0.02,-0.04,0,-0.66,0.67,-0.05,-2.49,2.52,1019.86,1000,1000,1000,26.25,0,3.84
24765200,21.74,1.18,-1.25,0.01,-0.02,1,0.02,-0.04,0.02,0,-0.02,1,-0.01,-0.02,-0.04,0,-0.66,0.67,-0.05,-2.49,2.52,1019.86,1000,1000,1000,26.25,0,3.73
24766221,21.74,1.17,-1.25,0.01,-0.02,1,0.08,-0.04,0.02,0,-0.02,1,-0.01,-0.02,-0.04,0,-0.66,0.67,-0.05,-2.49,2.52,1019.86,1000,1000,1000,26.25,0,3.71
24769653,21.74,1.17,-1.25,0.01,-0.02,1,0.02,-0.04,-0.04,0,-0.02,1,-0.01,-0.02,-0.04,0,-0.66,0.67,-0.05,-2.49,2.52,1019.86,1000,1000,1000,26.9,0,3.74
24770716,21.74,1.17,-1.25,0.01,-0.02,1,0.08,-0.04,-0.04,0,-0.02,1,-0.01,-0.02,-0.04,0,-0.66,0.67,-0.05,-2.49,2.52,1019.86,1000,1000,1000,26.9,0,3.73
24772102,21.75,1.17,-1.25,0.01,-0.02,1,-0.04,-0.04,-0.04,0,-0.02,1,-0.01,-0.02,-0.04,0,-0.66,0.67,-0.05,-2.49,2.52,1019.86,1000,1000,1000,26.9,0,3.73
24775549,21.75,1.17,-1.25,0.01,-0.02,1,0.02,-0.04,-0.04,0,-0.02,1,-0.01,-0.02,-0.04,0,-0.66,0.67,-0.05,-2.49,2.52,1019.86,1000,1000,1000,27.18,0,3.73
24776578,21.75,1.17,-1.25,0.01,-0.02,1,-0.04,-0.04,-0.04,0,-0.02,1,-0.01,-0.02,-0.04,0,-0.66,0.67,-0.05,-2.49,2.52,1019.85,1000,1000,1000,27.18,0,3.73
24777604,21.75,1.17,-1.25,0.01,-0.02,1,0.02,-0.04,0.02,0,-0.02,1,-0.01,-0.02,-0.04,0,-0.66,0.67,-0.05,-2.49,2.52,1019.85,1000,1000,1000,27.18,0,3.73
24781271,21.75,1.17,-1.25,0.01,-0.02,1,0.02,0.02,-0.04,0,-0.02,1,-0.01,-0.02,-0.04,0,-0.66,0.67,-0.05,-2.49,2.52,1019.85,1000,1000,1000,26.86,0,3.73
24782317,21.76,1.17,-1.25,0.01,-0.02,1,0.02,-0.04,-0.04,0,-0.02,1,-0.01,-0.02,-0.04,0,-0.66,0.67,-0.05,-2.49,2.52,1019.85,1000,1000,1000,26.86,0,3.73
24783335,21.76,1.17,-1.25,0.01,-0.02,1,0.02,-0.04,-0.04,0,-0.02,1,-0.01,-0.02,-0.04,0,-0.66,0.67,-0.05,-2.49,2.52,1019.85,1000,1000,1000,26.86,0,3.71
24784340,21.76,1.17,-1.25,0.01,-0.02,1,0.02,-0.04,-0.04,0,-0.02,1,-0.01,-0.02,-0.04,0,-0.66,0.67,-0.05,-2.49,2.52,1019.85,1000,1000,1000,26.86,0,3.62
24787733,21.76,1.17,-1.25,0.01,-0.02,1,0.02,0.02,-0.04,0,-0.02,1,-0.01,-0.03,-0.04,0,-0.66,0.67,-0.05,-2.49,2.52,1019.85,1000,1000,1000,24.12,0,3.72
24788832,21.76,1.17,-1.25,0.02,-0.02,1,-0.04,0.08,0.02,0,-0.02,1,-0.01,-0.03,-0.04,0,-0.66,0.67,-0.05,-2.49,2.52,1019.85,1000,1000,1000,24.12,0,3.73
24789833,21.76,1.17,-1.25,0.01,-0.02,1,0.02,0.02,-0.1,0,-0.02,1,-0.01,-0.03,-0.04,0,-0.66,0.67,-0.05,-2.49,2.52,1019.85,1000,1000,1000,24.12,0,3.73
24790868,21.76,1.17,-1.25,0.01,-0.02,1,0.02,0.02,-0.04,0,-0.02,1,-0.01,-0.03,-0.04,0,-0.66,0.67,-0.05,-2.49,2.52,1019.85,1000,1000,1000,24.12,0,3.67
24794512,21.76,1.17,-1.25,0.01,-0.02,1,0.02,-0.04,-0.04,0,-0.02,1,-0.01,-0.03,-0.04,0,-0.66,0.67,-0.05,-2.49,2.52,1019.85,1000,1000,1000,23.82,0,3.72
24797849,21.76,1.17,-1.25,0.01,-0.02,1,-0.04,-0.04,-0.1,0,-0.02,1,-0.01,-0.03,-0.04,0,-0.66,0.67,-0.05,-2.49,2.52,1019.84,1000,1000,1000,23.82,0,3.75
24802746,21.77,1.17,-1.25,0.01,-0.02,1,0.08,-0.04,-0.04,0,-0.02,1,-0.01,-0.03,-0.04,0,-0.66,0.67,-0.05,-2.49,2.52,1019.84,1000,1000,1000,26.02,0,3.73
24805966,21.77,1.17,-1.25,0.01,-0.02,1,-0.04,-0.04,-0.04,0,-0.02,1,-0.01,-0.03,-0.04,0,-0.66,0.67,-0.05,-2.49,2.52,1019.84,1000,1000,1000,26.02,0,3.74
24821958,21.77,1.17,-1.25,0.01,-0.02,1,0.02,-0.04,0.02,0,-0.02,1,-0.01,-0.03,-0.04,0,-0.66,0.67,-0.05,-2.49,2.52,1019.84,1000,1000,1000,24.78,0,3.74
24825529,21.79,1.16,-1.25,0.01,-0.02,1,0.02,0.02,0.02,0,-0.02,1,-0.01,-0.03,-0.04,0,-0.66,0.67,-0.05,-2.49,2.52,1019.83,1000,1000,1000,27.75,0,3.74
24826597,21.79,1.16,-1.25,0.01,-0.02,1,0.02,-0.04,-0.04,0,-0.02,1,-0.01,-0.03,-0.04,0,-0.66,0.67,-0.05,-2.49,2.52,1019.83,1000,1000,1000,27.75,0,3.72
24827627,21.79,1.16,-1.25,0.01,-0.02,1,0.02,-0.04,0.02,0,-0.02,1,-0.01,-0.03,-0.04,0,-0.66,0.67,-0.05,-2.49,2.52,1019.83,1000,1000,1000,27.75,0,3.73
24828667,21.79,1.16,-1.25,0.01,-0.02,1,0.02,-0.04,-0.04,0,-0.02,1,-0.01,-0.03,-0.04,0,-0.66,0.67,-0.05,-2.49,2.52,1019.83,1000,1000,1000,27.75,0,3.73
24832116,21.8,1.16,-1.25,0.01,-0.02,1,0.02,-0.1,0.02,0,-0.02,1,-0.01,-0.03,-0.04,0,-0.66,0.67,-0.05,-2.49,2.52,1019.83,1000,1000,1000,26.86,0,3.73
24833234,21.8,1.16,-1.25,0.01,-0.02,1,-0.04,-0.04,-0.04,0,-0.02,1,-0.01,-0.03,-0.04,0,-0.66,0.67,-0.05,-2.49,2.52,1019.83,1000,1000,1000,26.86,0,3.72
24834280,21.8,1.16,-1.25,0.01,-0.02,1,-0.04,-0.1,-0.04,0,-0.02,1,-0.01,-0.03,-0.04,0,-0.66,0.67,-0.05,-2.49,2.52,1019.83,1000,1000,1000,26.86,0,3.73
24837709,21.8,1.16,-1.25,0.01,-0.02,1,0.02,-0.04,-0.04,0,-0.02,1,-0.01,-0.03,-0.04,0,-0.66,0.68,-0.05,-2.49,2.52,1019.83,1000,1000,1000,27.73,0,3.74
24838760,21.8,1.16,-1.25,0.01,-0.02,1,0.08,0.02,-0.04,0,-0.02,1,-0.01,-0.03,-0.04,0,-0.66,0.68,-0.05,-2.49,2.52,1019.83,1000,1000,1000,27.73,0,3.73
24840161,21.81,1.16,-1.25,0.01,-0.02,1,0.02,-0.04,-0.04,0,-0.02,1,-0.01,-0.03,-0.04,0,-0.66,0.68,-0.05,-2.49,2.52,1019.83,1000,1000,1000,27.73,0,3.73
24843590,21.81,1.16,-1.25,0.01,-0.02,1,0.08,-0.04,-0.04,0,-0.02,1,-0.01,-0.03,-0.04,0,-0.66,0.68,-0.05,-2.49,2.52,1019.83,1000,1000,1000,27.67,0,3.72
24844658,21.81,1.16,-1.25,0.01,-0.02,1,0.08,-0.04,-0.1,0,-0.02,1,-0.01,-0.03,-0.04,0,-0.66,0.68,-0.05,-2.49,2.52,1019.83,1000,1000,1000,27.67,0,3.73
24846049,21.81,1.16,-1.25,0.01,-0.02,1,0.02,-0.04,-0.04,0,-0.02,1,-0.01,-0.03,-0.04,0,-0.66,0.68,-0.05,-2.48,2.52,1019.82,1000,1000,1000,27.67,0,3.73
24849506,21.82,1.16,-1.25,0.01,-0.02,1,0.02,-0.04,0.02,0,-0.02,1,-0.01,-0.03,-0.04,0,-0.66,0.68,-0.05,-2.48,2.52,1019.82,1000,1000,1000,27.67,0,3.73
24850613,21.82,1.16,-1.25,0.01,-0.02,1,0.08,-0.04,0.02,0,-0.02,1,-0.01,-0.03,-0.04,0,-0.66,0.68,-0.05,-2.48,2.52,1019.82,1000,1000,1000,27.67,0,3.73
24851688,21.82,1.16,-1.25,0.01,-0.02,1,0.08,-0.04,-0.04,0,-0.02,1,-0.01,-0.03,-0.04,0,-0.66,0.68,-0.05,-2.48,2.52,1019.82,1000,1000,1000,27.67,0,3.73
24855520,21.82,1.16,-1.25,0.01,-0.02,1,-0.04,-0.1,-0.04,0,-0.02,1,-0.01,-0.03,-0.04,0,-0.66,0.68,-0.05,-2.48,2.52,1019.82,1000,1000,1000,27.67,0,3.73
24856587,21.82,1.16,-1.25,0.01,-0.02,1,0.02,-0.04,-0.04,0,-0.02,1,-0.01,-0.03,-0.04,0,-0.66,0.68,-0.05,-2.48,2.52,1019.82,1000,1000,1000,27.67,0,3.73
24857919,21.83,1.16,-1.25,0.01,-0.02,1,0.02,-0.04,-0.04,0,-0.02,1,-0.01,-0.03,-0.04,0,-0.66,0.68,-0.05,-2.48,2.52,1019.82,1000,1000,1000,27.67,0,3.72
24861436,21.83,1.15,-1.25,0.01,-0.02,1,-0.04,0.02,-0.04,0,-0.02,1,-0.01,-0.03,-0.04,0,-0.66,0.68,-0.05,-2.48,2.52,1019.82,1000,1000,1000,26.84,0,3.73
24862489,21.83,1.15,-1.25,0.01,-0.02,1,0.02,0.02,-0.1,0,-0.02,1,-0.01,-0.04,-0.04,0,-0.66,0.68,-0.05,-2.48,2.52,1019.82,1000,1000,1000,26.84,0,3.72
24863801,21.83,1.15,-1.25,0.01,-0.02,1,0.02,-0.04,-0.04,0,-0.02,1,-0.01,-0.04,-0.04,0,-0.66,0.68,-0.05,-2.48,2.52,1019.82,1000,1000,1000,26.84,0,3.73
24864813,21.83,1.15,-1.25,0.01,-0.02,1,0.02,-0.04,-0.04,0,-0.02,1,-0.01,-0.04,-0.04,0,-0.66,0.68,-0.05,-2.48,2.52,1019.82,1000,1000,1000,26.84,0,3.73
24868259,21.84,1.15,-1.25,0.01,-0.02,1,0.02,0.02,0.02,0,-0.02,1,-0.01,-0.04,-0.04,0,-0.66,0.68,-0.05,-2.48,2.52,1019.81,1000,1000,1000,25.61,0,3.73
24869303,21.84,1.15,-1.25,0.01,-0.02,1,0.02,0.02,-0.04,0,-0.02,1,-0.01,-0.04,-0.04,0,-0.66,0.68,-0.05,-2.48,2.52,1019.81,1000,1000,1000,25.61,0,3.73
24870337,21.84,1.15,-1.25,0.01,-0.02,1,0.02,-0.04,-0.04,0,-0.02,1,-0.01,-0.04,-0.04,0,-0.66,0.68,-0.05,-2.48,2.52,1019.81,1000,1000,1000,25.61,0,3.73
24873752,21.84,1.15,-1.25,0.01,-0.02,1,0.02,0.02,-0.04,0,-0.02,1,-0.01,-0.04,-0.04,0,-0.66,0.68,-0.04,-2.48,2.52,1019.81,1000,1000,1000,28.03,0,3.73
24874806,21.84,1.15,-1.25,0.01,-0.02,1,-0.04,-0.04,-0.1,0,-0.02,1,-0.01,-0.04,-0.04,0,-0.66,0.68,-0.04,-2.48,2.52,1019.81,1000,1000,1000,28.03,0,3.73
24875818,21.84,1.15,-1.25,0.01,-0.02,1,-0.04,0.02,-0.1,0,-0.02,1,-0.01,-0.04,-0.04,0,-0.66,0.68,-0.04,-2.48,2.52,1019.81,1000,1000,1000,28.03,0,3.73
24876813,21.84,1.15,-1.25,0.01,-0.02,1,0.02,-0.04,-0.1,0,-0.02,1,-0.01,-0.04,-0.04,0,-0.66,0.68,-0.04,-2.48,2.52,1019.81,1000,1000,1000,28.03,0,3.74
24880259,21.85,1.15,-1.25,0.01,-0.02,1,0.02,-0.04,0.02,0,-0.02,1,-0.01,-0.04,-0.04,0,-0.66,0.68,-0.04,-2.48,2.52,1019.81,1000,1000,1000,28.03,0,3.72
24881594,21.85,1.15,-1.25,0.01,-0.02,1,0.02,-0.04,0.02,0,-0.02,1,-0.01,-0.04,-0.04,0,-0.66,0.68,-0.04,-2.48,2.52,1019.81,1000,1000,1000,28.03,0,3.73
24882627,21.85,1.15,-1.25,0.01,-0.02,1,0.02,-0.04,0.02,0,-0.02,1,-0.01,-0.04,-0.04,0,-0.66,0.68,-0.04,-2.48,2.52,1019.81,1000,1000,1000,28.03,0,3.62
24886105,21.85,1.15,-1.25,0.01,-0.02,1,0.02,0.02,-0.04,0,-0.02,1,-0.01,-0.04,-0.04,0,-0.66,0.68,-0.04,-2.48,2.52,1019.81,1000,1000,1000,26.7,0,3.73
24887147,21.86,1.15,-1.25,0.01,-0.02,1,-0.04,-0.04,-0.04,0,-0.02,1,-0.01,-0.04,-0.04,0,-0.66,0.68,-0.04,-2.48,2.52,1019.8,1000,1000,1000,26.7,0,3.73
24888524,21.86,1.15,-1.25,0.01,-0.02,1,0.02,-0.04,0.02,0,-0.02,1,-0.01,-0.04,-0.04,0,-0.66,0.68,-0.04,-2.48,2.52,1019.8,1000,1000,1000,26.7,0,3.73
24892021,21.86,1.15,-1.25,0.01,-0.02,1,-0.04,-0.04,0.02,0,-0.02,1,-0.01,-0.04,-0.04,0,-0.66,0.68,-0.04,-2.48,2.52,1019.8,1000,1000,1000,26.62,0,3.73
24893058,21.86,1.15,-1.25,0.01,-0.02,1,-0.04,0.02,-0.04,0,-0.02,1,-0.01,-0.04,-0.04,0,-0.66,0.68,-0.04,-2.48,2.52,1019.8,1000,1000,1000,26.62,0,3.73
24894417,21.86,1.15,-1.25,0.01,-0.02,1,0.02,0.02,-0.1,0,-0.02,1,-0.01,-0.04,-0.04,0,-0.66,0.68,-0.04,-2.48,2.52,1019.8,1000,1000,1000,26.62,0,3.73
24898093,21.86,1.15,-1.25,0.01,-0.02,1,0.08,0.02,0.02,0,-0.02,1,-0.01,-0.04,-0.04,0,-0.66,0.68,-0.04,-2.48,2.52,1019.8,1000,1000,1000,24.48,0,3.72
24901430,21.87,1.15,-1.25,0.01,-0.02,1,0.08,-0.04,-0.04,0,-0.02,1,-0.01,-0.04,-0.04,0,-0.66,0.68,-0.04,-2.48,2.52,1019.8,1000,1000,1000,24.48,0,3.72
24906393,21.87,1.14,-1.25,0.01,-0.02,1,-0.04,-0.04,0.02,0,-0.02,1,-0.01,-0.04,-0.04,0,-0.66,0.68,-0.04,-2.48,2.52,1019.8,1000,1000,1000,26.61,0,3.73
24909600,21.87,1.14,-1.25,0.01,-0.02,1,0.02,-0.04,-0.1,0,-0.02,1,-0.01,-0.03,-0.04,0,-0.66,0.68,-0.04,-2.48,2.52,1019.8,1000,1000,1000,26.61,0,3.73
24925598,21.88,1.14,-1.25,0.01,-0.02,1,0.02,-0.04,-0.04,0,-0.02,1,-0.01,-0.03,-0.04,0,-0.66,0.68,-0.04,-2.48,2.52,1019.8,1000,1000,1000.01,28.18,0,3.73
24929232,21.89,1.14,-1.25,0.01,-0.02,1,0.02,-0.1,0.02,0,-0.02,1,-0.01,-0.03,-0.04,0,-0.66,0.68,-0.04,-2.48,2.52,1019.79,1000,1000,1000.01,25.5,0,3.73
24930304,21.89,1.14,-1.25,0.01,-0.02,1,0.02,-0.04,-0.04,0,-0.02,1,-0.01,-0.03,-0.04,0,-0.66,0.68,-0.04,-2.48,2.52,1019.79,1000,1000,1000.01,25.5,0,3.73
24931352,21.89,1.14,-1.25,0.01,-0.02,1,0.08,0.02,-0.04,0,-0.02,1,-0.01,-0.03,-0.04,0,-0.66,0.68,-0.04,-2.48,2.52,1019.79,1000,1000,1000.01,25.5,0,3.73
24934772,21.89,1.14,-1.25,0.01,-0.02,1,-0.04,-0.04,-0.1,0,-0.02,1,-0.01,-0.03,-0.04,0,-0.66,0.68,-0.04,-2.48,2.52,1019.79,1000,1000,1000.01,25.74,0,3.73
24935840,21.89,1.14,-1.25,0.01,-0.02,1,-0.04,-0.04,-0.04,0,-0.02,1,-0.01,-0.03,-0.04,0,-0.66,0.68,-0.04,-2.48,2.52,1019.79,1000,1000,1000.01,25.74,0,3.73
24936861,21.89,1.14,-1.25,0.01,-0.02,1,0.02,-0.1,0.02,0,-0.02,1,-0.01,-0.03,-0.04,0,-0.66,0.68,-0.04,-2.48,2.52,1019.79,1000,1000,1000.01,25.74,0,3.73
24937867,21.9,1.14,-1.25,0.01,-0.02,1,0.08,-0.04,0.02,0,-0.02,1,-0.01,-0.03,-0.04,0,-0.66,0.68,-0.04,-2.48,2.52,1019.79,1000,1000,1000.02,25.74,0,3.73
24941333,21.9,1.14,-1.25,0.01,-0.02,1,0.02,-0.04,-0.04,0,-0.02,1,-0.01,-0.03,-0.04,0,-0.66,0.68,-0.04,-2.48,2.52,1019.79,1000,1000,1000.02,25.74,0,3.75
24942614,21.9,1.14,-1.25,0.01,-0.02,1,-0.04,-0.04,-0.04,0,-0.02,1,-0.01,-0.03,-0.04,0,-0.66,0.68,-0.04,-2.48,2.52,1019.78,1000,1000,1000.02,25.74,0,3.71
24944211,21.9,1.14,-1.25,0.01,-0.02,1,0.02,-0.04,-0.1,0,-0.02,1,-0.01,-0.03,-0.04,0,-0.66,0.68,-0.04,-2.48,2.52,1019.78,1000,1000,1000.02,25.74,0,3.71
24947756,21.9,1.14,-1.25,0.01,-0.02,1,-0.04,-0.04,0.02,0,-0.02,1,-0.01,-0.03,-0.04,0,-0.66,0.68,-0.04,-2.48,2.52,1019.78,1000,1000,1000.02,25.7,0,3.73
24948805,21.9,1.14,-1.25,0.01,-0.02,1,0.02,-0.04,0.02,0,-0.02,1,-0.01,-0.03,-0.04,0,-0.66,0.68,-0.04,-2.48,2.52,1019.78,1000,1000,1000.02,25.7,0,3.73
24949826,21.9,1.14,-1.25,0.01,-0.02,1,-0.04,-0.04,-0.04,0,-0.02,1,-0.01,-0.03,-0.04,0,-0.66,0.68,-0.04,-2.48,2.52,1019.78,1000,1000,1000.02,25.7,0,3.73
24950833,21.91,1.13,-1.25,0.01,-0.02,1,-0.04,-0.1,-0.04,0,-0.02,1,-0.01,-0.03,-0.04,0,-0.66,0.68,-0.04,-2.48,2.52,1019.78,1000,1000,1000.02,25.7,0,3.73
24954285,21.91,1.13,-1.25,0.01,-0.02,1,0.02,0.02,-0.04,0,-0.02,1,-0.01,-0.03,-0.04,0,-0.66,0.68,-0.04,-2.48,2.52,1019.78,1000,1000,1000.02,28.14,0,3.76
24955555,21.91,1.13,-1.25,0.01,-0.02,1,0.02,-0.1,-0.04,0,-0.02,1,-0.01,-0.03,-0.04,0,-0.66,0.68,-0.04,-2.48,2.52,1019.78,1000,1000,1000.02,28.14,0,3.72
24956602,21.91,1.13,-1.25,0.01,-0.02,1,0.08,-0.04,-0.04,0,-0.02,1,-0.01,-0.03,-0.04,0,-0.66,0.68,-0.04,-2.48,2.52,1019.78,1000,1000,1000.02,28.14,0,3.73
24960091,21.92,1.13,-1.25,0.01,-0.02,1,0.02,0.02,-0.04,0,-0.02,1,-0.01,-0.03,-0.04,0,-0.66,0.68,-0.04,-2.48,2.52,1019.78,1000,1000,1000.03,27.46,0,3.72
24961150,21.92,1.13,-1.25,0.01,-0.02,1,0.02,0.02,-0.04,0,-0.02,1,-0.01,-0.03,-0.04,0,-0.66,0.68,-0.04,-2.48,2.52,1019.78,1000,1000,1000.03,27.46,0,3.73
24962450,21.92,1.13,-1.25,0.01,-0.02,1,0.02,-0.04,-0.04,0,-0.02,1,-0.01,-0.03,-0.04,0,-0.66,0.68,-0.04,-2.48,2.52,1019.77,1000,1000,1000.03,27.46,0,3.73
24965887,21.92,1.13,-1.25,0.01,-0.02,1,0.02,-0.1,0.02,0,-0.02,1,-0.01,-0.03,-0.04,0,-0.66,0.68,-0.04,-2.47,2.52,1019.77,1000,1000,1000.03,27.46,0,3.76
24966957,21.92,1.13,-1.25,0.01,-0.02,1,0.02,-0.04,0.02,0,-0.02,1,-0.01,-0.04,-0.04,0,-0.66,0.68,-0.04,-2.47,2.52,1019.77,1000,1000,1000.03,27.46,0,3.73
24968001,21.92,1.13,-1.25,0.01,-0.02,1,0.02,-0.04,0.02,0,-0.02,1,-0.01,-0.04,-0.04,0,-0.66,0.68,-0.04,-2.47,2.52,1019.77,1000,1000,1000.03,27.46,0,3.73
24971463,21.93,1.13,-1.25,0.01,-0.02,1,0.02,0.02,-0.04,0,-0.02,1,-0.01,-0.04,-0.04,0,-0.66,0.68,-0.04,-2.47,2.52,1019.77,1000,1000,1000.03,27.14,0,3.73
24972563,21.93,1.13,-1.25,0.01,-0.02,1,0.02,-0.04,-0.04,0,-0.02,1,-0.01,-0.04,-0.04,0,-0.66,0.68,-0.04,-2.47,2.52,1019.77,1000,1000,1000.03,27.14,0,3.73
24973587,21.93,1.13,-1.25,0.01,-0.02,1,-0.04,0.02,-0.04,0,-0.02,1,-0.01,-0.04,-0.04,0,-0.66,0.68,-0.04,-2.47,2.52,1019.77,1000,1000,1000.03,27.14,0,3.73
24974607,21.93,1.13,-1.25,0.01,-0.02,1,-0.04,-0.04,-0.04,0,-0.02,1,-0.01,-0.04,-0.04,0,-0.66,0.68,-0.04,-2.47,2.52,1019.77,1000,1000,1000.03,27.14,0,3.73
24978066,21.93,1.13,-1.25,0.01,-0.02,1,0.02,-0.04,0.02,0,-0.02,1,-0.01,-0.04,-0.04,0,-0.66,0.68,-0.04,-2.47,2.52,1019.77,1000,1000,1000.04,25.59,0,3.73
24979277,21.93,1.13,-1.25,0.01,-0.02,1,0.02,-0.04,-0.04,0,-0.02,1,-0.01,-0.04,-0.04,0,-0.66,0.68,-0.04,-2.47,2.52,1019.77,1000,1000,1000.04,25.59,0,3.73
24980339,21.93,1.13,-1.25,0.01,-0.02,1,0.02,0.02,-0.04,0,-0.02,1,-0.01,-0.04,-0.04,0,-0.66,0.68,-0.04,-2.47,2.52,1019.77,1000,1000,1000.04,25.59,0,3.73
24983774,21.94,1.13,-1.25,0.01,-0.02,1,0.08,-0.04,-0.04,0,-0.02,1,-0.01,-0.04,-0.04,0,-0.66,0.68,-0.04,-2.47,2.52,1019.76,1000,1000,1000.04,26.67,0,3.84
24984842,21.94,1.13,-1.25,0.01,-0.02,1,0.02,-0.04,-0.04,0,-0.02,1,-0.01,-0.04,-0.04,0,-0.66,0.68,-0.04,-2.47,2.52,1019.76,1000,1000,1000.04,26.67,0,3.73
24986185,21.94,1.13,-1.25,0.01,-0.02,1,0.02,-0.04,0.02,0,-0.02,1,-0.01,-0.04,-0.04,0,-0.66,0.68,-0.04,-2.47,2.52,1019.76,1000,1000,1000.04,26.67,0,3.72
24989619,21.94,1.13,-1.25,0.01,-0.02,1,0.02,-0.04,-0.04,0,-0.02,1,-0.01,-0.04,-0.04,0,-0.66,0.68,-0.04,-2.47,2.52,1019.76,1000,1000,1000.04,24.27,0,3.72
24990698,21.94,1.13,-1.25,0.01,-0.02,1,-0.04,-0.04,-0.04,0,-0.02,1,-0.01,-0.04,-0.04,0,-0.66,0.68,-0.04,-2.47,2.52,1019.76,1000,1000,1000.04,24.27,0,3.73
24992065,21.94,1.13,-1.25,0.01,-0.02,1,0.02,-0.04,-0.04,0,-0.02,1,-0.01,-0.04,-0.04,0,-0.66,0.68,-0.04,-2.47,2.52,1019.76,1000,1000,1000.04,24.27,0,3.73
24995516,21.95,1.13,-1.25,0.01,-0.02,1,0.02,-0.04,0.02,0,-0.02,1,-0.01,-0.04,-0.04,0,-0.66,0.68,-0.04,-2.47,2.52,1019.76,1000,1000,1000.04,26.67,0,3.77
24996576,21.95,1.12,-1.25,0.01,-0.02,1,0.02,-0.04,-0.04,0,-0.02,1,-0.01,-0.04,-0.04,0,-0.66,0.68,-0.04,-2.47,2.52,1019.76,1000,1000,1000.04,26.67,0,3.73
25000363,21.95,1.12,-1.25,0.01,-0.02,1,0.02,-0.04,-0.04,0,-0.02,1,-0.01,-0.04,-0.04,0,-0.66,0.68,-0.04,-2.47,2.52,1019.76,1000,1000,1000.05,26.67,0,3.66
25005425,21.96,1.12,-1.25,0.01,-0.02,1,0.02,-0.04,-0.04,0,-0.02,1,-0.01,-0.04,-0.04,0,-0.66,0.68,-0.04,-2.47,2.52,1019.76,1000,1000,1000.05,27.36,0,3.72
25008610,21.96,1.12,-1.25,0.01,-0.02,1,0.02,-0.04,-0.04,0,-0.02,1,-0.01,-0.04,-0.04,0,-0.66,0.68,-0.04,-2.47,2.52,1019.75,1000,1000,1000.05,27.36,0,3.73
25013588,21.96,1.12,-1.25,0.01,-0.02,1,0.08,-0.04,-0.04,0,-0.02,1,-0.01,-0.04,-0.04,0,-0.66,0.68,-0.04,-2.47,2.52,1019.75,1000,1000,1000.05,25.07,0,3.73
25014708,21.96,1.12,-1.25,0.01,-0.02,1,-0.04,-0.04,0.02,0,-0.02,1,-0.01,-0.04,-0.04,0,-0.66,0.68,-0.04,-2.47,2.52,1019.75,1000,1000,1000.05,25.07,0,3.73
25029204,21.97,1.12,-1.25,0.01,-0.02,1,0.02,-0.04,-0.1,0,-0.02,1,-0.01,-0.04,-0.04,0,-0.66,0.68,-0.04,-2.47,2.52,1019.75,1000,1000,1000.05,28.34,0,3.73
25033187,21.98,1.12,-1.25,0.01,-0.02,1,-0.04,-0.04,0.02,0,-0.02,1,-0.01,-0.04,-0.04,0,-0.66,0.68,-0.04,-2.47,2.52,1019.75,1000,1000,1000.06,25.39,0,3.74
25034458,21.98,1.12,-1.25,0.01,-0.02,1,-0.04,-0.04,-0.04,0,-0.02,1,-0.01,-0.04,-0.04,0,-0.66,0.68,-0.04,-2.47,2.52,1019.74,1000,1000,1000.06,25.39,0,3.75
25035469,21.98,1.12,-1.25,0.01,-0.02,1,0.02,-0.04,-0.04,0,-0.02,1,-0.01,-0.04,-0.04,0,-0.66,0.68,-0.04,-2.47,2.52,1019.74,1000,1000,1000.06,25.39,0,3.72
25038918,21.98,1.12,-1.25,0.01,-0.02,1,0.02,-0.04,-0.04,0,-0.02,1,-0.01,-0.04,-0.04,0,-0.66,0.68,-0.04,-2.47,2.52,1019.74,1000,1000,1000.06,21.46,0,3.67
25040017,21.98,1.12,-1.25,0.01,-0.02,1,0.08,-0.04,-0.04,0,-0.02,1,-0.01,-0.04,-0.04,0,-0.66,0.68,-0.04,-2.47,2.52,1019.74,1000,1000,1000.06,21.46,0,3.73
25041373,21.98,1.12,-1.25,0.01,-0.02,1,-0.04,-0.04,-0.04,0,-0.02,1,-0.01,-0.04,-0.04,0,-0.66,0.68,-0.04,-2.47,2.52,1019.74,1000,1000,1000.06,21.46,0,3.73
25044739,21.98,1.11,-1.25,0.01,-0.02,1,0.02,-0.04,0.02,0,-0.02,1,-0.01,-0.04,-0.04,0,-0.66,0.68,-0.04,-2.47,2.52,1019.74,1000,1000,1000.06,22.78,0,3.74
25045845,21.98,1.11,-1.25,0.01,-0.02,1,0.08,-0.04,0.02,0,-0.02,1,-0.01,-0.04,-0.04,0,-0.66,0.68,-0.04,-2.47,2.52,1019.74,1000,1000,1000.06,22.78,0,3.73
25046865,21.98,1.11,-1.25,0.01,-0.02,1,0.02,-0.04,0.02,0,-0.02,1,-0.01,-0.04,-0.04,0,-0.66,0.68,-0.04,-2.47,2.52,1019.74,1000,1000,1000.07,22.78,0,3.73
25047869,21.98,1.11,-1.25,0.01,-0.02,1,-0.04,-0.04,0.02,0,-0.02,1,-0.01,-0.04,-0.04,0,-0.66,0.68,-0.04,-2.47,2.52,1019.74,1000,1000,1000.07,22.78,0,3.73
25051259,21.98,1.11,-1.25,0.01,-0.02,1,-0.04,-0.04,-0.04,0,-0.02,1,-0.01,-0.04,-0.04,0,-0.66,0.68,-0.04,-2.47,2.52,1019.74,1000,1000,1000.07,21.97,0,3.73
25052361,21.98,1.11,-1.25,0.01,-0.02,1,-0.04,-0.04,-0.04,0,-0.02,1,-0.01,-0.04,-0.04,0,-0.66,0.68,-0.04,-2.47,2.52,1019.74,1000,1000,1000.07,21.97,0,3.73
25053399,21.98,1.11,-1.25,0.01,-0.02,1,-0.04,0.02,-0.1,0,-0.02,1,-0.01,-0.04,-0.04,0,-0.66,0.68,-0.04,-2.47,2.52,1019.74,1000,1000,1000.07,21.97,0,3.76
25056775,21.98,1.11,-1.25,0.01,-0.02,1,-0.04,-0.04,-0.04,0,-0.02,1,-0.01,-0.04,-0.04,0,-0.66,0.68,-0.04,-2.47,2.52,1019.73,1000,1000,1000.07,21.97,0,3.73
25057897,21.98,1.11,-1.25,0.01,-0.02,1,0.02,-0.04,-0.1,0,-0.02,1,-0.01,-0.04,-0.04,0,-0.66,0.68,-0.04,-2.47,2.52,1019.73,1000,1000,1000.07,21.97,0,3.72
25059135,21.98,1.11,-1.25,0.01,-0.02,1,0.08,0.02,-0.04,0,-0.02,1,-0.01,-0.04,-0.04,0,-0.66,0.68,-0.04,-2.47,2.52,1019.73,1000,1000,1000.07,21.97,0,3.73
25062520,21.98,1.11,-1.25,0.01,-0.02,1,-0.04,-0.04,-0.1,0,-0.02,1,-0.01,-0.04,-0.04,0,-0.66,0.68,-0.04,-2.47,2.52,1019.73,1000,1000,1000.07,25.56,0,3.73
25063631,21.98,1.11,-1.25,0.01,-0.02,1,-0.04,0.02,-0.04,0,-0.02,1,-0.01,-0.04,-0.04,0,-0.66,0.68,-0.04,-2.47,2.52,1019.73,1000,1000,1000.07,25.56,0,3.73
25064665,21.98,1.11,-1.25,0.01,-0.02,1,0.02,-0.04,-0.04,0,-0.02,1,-0.01,-0.04,-0.04,0,-0.65,0.68,-0.04,-2.47,2.52,1019.73,1000,1000,1000.07,25.56,0,3.73
25068204,21.98,1.11,-1.25,0.01,-0.02,1,0.02,-0.04,0.02,0,-0.02,1,-0.01,-0.04,-0.04,0,-0.65,0.68,-0.04,-2.47,2.52,1019.73,1000,1000,1000.07,27.46,0,3.73
25069329,21.99,1.11,-1.25,0.01,-0.02,1,0.02,0.02,-0.04,0,-0.02,1,-0.01,-0.04,-0.04,0,-0.65,0.68,-0.04,-2.47,2.52,1019.73,1000,1000,1000.07,27.46,0,3.73
25070363,21.99,1.11,-1.25,0.01,-0.02,1,0.02,0.02,-0.1,0,-0.02,1,-0.01,-0.04,-0.04,0,-0.65,0.68,-0.04,-2.47,2.52,1019.73,1000,1000,1000.08,27.46,0,3.71
25071400,21.99,1.11,-1.25,0.01,-0.02,1,0.02,0.02,-0.04,0,-0.02,1,-0.01,-0.04,-0.04,0,-0.65,0.68,-0.04,-2.47,2.52,1019.73,1000,1000,1000.08,27.46,0,3.73
25074757,21.99,1.11,-1.25,0.01,-0.02,1,-0.04,-0.1,0.02,0,-0.02,1,-0.01,-0.03,-0.04,0,-0.65,0.68,-0.04,-2.47,2.52,1019.73,1000,1000,1000.08,26.29,0,3.73
25075930,21.99,1.11,-1.25,0.01,-0.02,1,0.02,-0.04,-0.04,0,-0.02,1,-0.01,-0.03,-0.04,0,-0.65,0.68,-0.04,-2.47,2.52,1019.73,1000,1000,1000.08,26.29,0,3.73
25076967,21.99,1.11,-1.25,0.01,-0.02,1,0.02,0.02,-0.1,0,-0.02,1,-0.01,-0.03,-0.04,0,-0.65,0.68,-0.04,-2.47,2.52,1019.73,1000,1000,1000.08,26.29,0,3.71
25080384,22,1.11,-1.25,0.01,-0.02,1,0.02,-0.04,0.02,0,-0.02,1,-0.01,-0.03,-0.04,0,-0.65,0.68,-0.04,-2.47,2.53,1019.73,1000,1000,1000.08,26.62,0,3.73
25081484,22,1.11,-1.25,0.01,-0.02,1,0.02,0.02,-0.04,0,-0.02,1,-0.01,-0.03,-0.04,0,-0.65,0.68,-0.04,-2.47,2.53,1019.73,1000,1000,1000.08,26.62,0,3.73
25082799,22,1.11,-1.25,0.01,-0.02,1,0.02,-0.04,-0.1,0,-0.02,1,-0.01,-0.03,-0.04,0,-0.65,0.68,-0.04,-2.47,2.53,1019.72,1000,1000,1000.08,26.62,0,3.73
25083822,22,1.11,-1.25,0.01,-0.02,1,0.08,-0.04,-0.1,0,-0.02,1,-0.01,-0.03,-0.04,0,-0.65,0.68,-0.04,-2.47,2.53,1019.72,1000,1000,1000.08,26.62,0,3.72
25087244,22,1.11,-1.25,0.01,-0.02,1,0.02,-0.04,-0.1,0,-0.02,1,-0.01,-0.02,-0.04,0,-0.65,0.68,-0.04,-2.47,2.53,1019.72,1000,1000,1000.08,28.23,0,3.66
25088367,22,1.11,-1.25,0.01,-0.02,1,0.02,-0.04,-0.04,0,-0.02,1,-0.01,-0.02,-0.04,0,-0.65,0.68,-0.04,-2.47,2.53,1019.72,1000,1000,1000.08,28.23,0,3.73
25089735,22.01,1.1,-1.25,0.01,-0.02,1,0.02,-0.04,-0.04,0,-0.02,1,-0.01,-0.02,-0.04,0,-0.65,0.68,-0.04,-2.47,2.53,1019.72,1000,1000,1000.08,28.23,0,3.73
25093165,22.01,1.1,-1.25,0.01,-0.02,1,-0.04,0.02,-0.04,0,-0.02,1,-0.01,-0.02,-0.04,0,-0.65,0.68,-0.04,-2.47,2.53,1019.72,1000,1000,1000.08,25.48,0,3.73
25094287,22.01,1.1,-1.25,0.01,-0.02,1,-0.04,0.02,-0.04,0,-0.02,1,-0.01,-0.02,-0.04,0,-0.65,0.68,-0.04,-2.47,2.53,1019.72,1000,1000,1000.08,25.48,0,3.73
25095648,22.01,1.1,-1.25,0.01,-0.02,1,0.02,-0.04,-0.04,0,-0.02,1,-0.01,-0.02,-0.04,0,-0.65,0.68,-0.04,-2.47,2.53,1019.72,1000,1000,1000.08,25.48,0,3.73
25099298,22.01,1.1,-1.25,0.01,-0.02,1,-0.04,-0.04,-0.04,0,-0.02,1,-0.01,-0.02,-0.04,0,-0.65,0.68,-0.04,-2.46,2.53,1019.72,1000,1000,1000.09,26.28,0,3.71
25102647,22.01,1.1,-1.25,0.01,-0.02,1,0.02,-0.04,-0.04,0,-0.02,1,-0.01,-0.02,-0.04,0,-0.65,0.68,-0.04,-2.46,2.53,1019.72,1000,1000,1000.09,26.28,0,3.73
25107564,22.02,1.1,-1.25,0.01,-0.02,1,-0.04,-0.04,0.02,0,-0.02,1,-0.01,-0.02,-0.04,0,-0.65,0.68,-0.04,-2.46,2.53,1019.72,1000,1000,1000.09,29.48,0,3.74
25110772,22.03,1.1,-1.25,0.01,-0.02,1,0.02,0.02,-0.04,0,-0.02,1,-0.01,-0.02,-0.04,0,-0.65,0.68,-0.04,-2.46,2.53,1019.72,1000,1000,1000.09,29.48,0,3.73
25115733,22.03,1.1,-1.25,0.01,-0.02,1,0.08,-0.04,0.02,0,-0.02,1,-0.01,-0.02,-0.04,0,-0.65,0.68,-0.04,-2.46,2.53,1019.71,1000,1000,1000.09,23.89,0,3.67
25116792,22.03,1.1,-1.25,0.01,-0.02,1,0.14,0.02,0.02,0,-0.02,1,-0.01,-0.02,-0.04,0,-0.65,0.68,-0.04,-2.46,2.53,1019.71,1000,1000,1000.09,23.89,0,3.73
25131277,22.03,1.1,-1.25,0.01,-0.02,1,0.02,-0.04,-0.04,0,-0.02,1,-0.01,-0.02,-0.04,0,-0.65,0.68,-0.04,-2.46,2.53,1019.71,1000,1000,1000.09,27.12,0,3.79
25134839,22.05,1.1,-1.25,0.01,-0.02,1,-0.04,-0.04,-0.04,0,-0.02,1,-0.01,-0.02,-0.04,0,-0.65,0.68,-0.04,-2.46,2.53,1019.71,1000,1000,1000.1,27.12,0,3.74
25136075,22.05,1.1,-1.25,0.01,-0.02,1,0.02,-0.04,-0.04,0,-0.02,1,-0.01,-0.03,-0.04,0,-0.65,0.68,-0.04,-2.46,2.53,1019.71,1000,1000,1000.1,27.12,0,3.73
25137106,22.05,1.1,-1.25,0.01,-0.02,1,0.02,-0.1,-0.04,0,-0.02,1,-0.01,-0.03,-0.04,0,-0.65,0.68,-0.04,-2.46,2.53,1019.71,1000,1000,1000.1,27.12,0,3.73
25140563,22.05,1.09,-1.25,0.01,-0.02,1,0.02,0.02,-0.04,0,-0.02,1,-0.01,-0.03,-0.04,0,-0.65,0.68,-0.04,-2.46,2.53,1019.7,1000,1000,1000.1,26.42,0,3.74
25141603,22.05,1.09,-1.25,0.01,-0.02,1,0.02,-0.04,0.02,0,-0.02,1,-0.01,-0.03,-0.04,0,-0.65,0.68,-0.04,-2.46,2.53,1019.7,1000,1000,1000.1,26.42,0,3.73
25142992,22.05,1.09,-1.25,0.01,-0.02,1,0.08,-0.04,-0.1,0,-0.02,1,-0.01,-0.03,-0.04,0,-0.65,0.68,-0.04,-2.46,2.53,1019.7,1000,1000,1000.1,26.42,0,3.73
25146444,22.06,1.09,-1.25,0.01,-0.02,1,-0.04,-0.04,-0.04,0,-0.02,1,-0.01,-0.03,-0.04,0,-0.65,0.68,-0.04,-2.46,2.53,1019.7,1000,1000,1000.1,26.88,0,3.73
25147484,22.06,1.09,-1.25,0.01,-0.02,1,0.02,0.02,0.02,0,-0.02,1,-0.01,-0.03,-0.04,0,-0.65,0.68,-0.04,-2.46,2.53,1019.7,1000,1000,1000.1,26.88,0,3.73
25148523,22.06,1.09,-1.25,0.01,-0.02,1,0.02,-0.04,-0.04,0,-0.02,1,-0.01,-0.03,-0.04,0,-0.65,0.68,-0.04,-2.46,2.53,1019.7,1000,1000,1000.11,26.88,0,3.73
25152271,22.06,1.09,-1.25,0.01,-0.02,1,-0.04,-0.04,-0.04,0,-0.02,1,-0.01,-0.03,-0.04,0,-0.65,0.68,-0.04,-2.46,2.53,1019.7,1000,1000,1000.11,28.07,0,3.73
25153358,22.06,1.09,-1.25,0.01,-0.02,1,-0.04,-0.04,-0.1,0,-0.02,1,-0.01,-0.03,-0.04,0,-0.65,0.68,-0.04,-2.46,2.53,1019.7,1000,1000,1000.11,28.07,0,3.73
25154401,22.07,1.09,-1.25,0.01,-0.02,1,0.02,-0.04,-0.1,0,-0.02,1,-0.01,-0.03,-0.04,0,-0.65,0.68,-0.04,-2.46,2.53,1019.7,1000,1000,1000.11,28.07,0,3.72
25155407,22.07,1.09,-1.26,0.01,-0.02,1,0.08,-0.1,-0.04,0,-0.02,1,-0.01,-0.03,-0.04,0,-0.65,0.68,-0.04,-2.46,2.53,1019.7,1000,1000,1000.11,28.07,0,3.73
25158809,22.07,1.09,-1.26,0.01,-0.02,1,0.08,0.02,-0.04,0,-0.02,1,-0.01,-0.03,-0.04,0,-0.65,0.68,-0.04,-2.46,2.53,1019.7,1000,1000,1000.11,28.07,0,3.78
25159851,22.07,1.09,-1.26,0.01,-0.02,1,-0.04,-0.04,0.02,0,-0.02,1,-0.01,-0.03,-0.04,0,-0.65,0.68,-0.04,-2.46,2.53,1019.69,1000,1000,1000.11,28.07,0,3.73
25160860,22.07,1.09,-1.26,0.01,-0.02,1,-0.04,-0.04,-0.04,0,-0.02,1,-0.01,-0.03,-0.04,0,-0.65,0.68,-0.04,-2.46,2.53,1019.69,1000,1000,1000.11,28.07,0,3.83
25161865,22.07,1.09,-1.26,0.01,-0.02,1,0.02,-0.04,-0.04,0,-0.02,1,-0.01,-0.03,-0.04,0,-0.65,0.68,-0.04,-2.46,2.53,1019.69,1000,1000,1000.11,28.07,0,3.74
25165326,22.08,1.09,-1.26,0.01,-0.02,1,-0.04,-0.04,-0.1,0,-0.02,1,-0.01,-0.03,-0.04,0,-0.65,0.68,-0.04,-2.46,2.53,1019.69,1000,1000,1000.11,25.74,0,3.73
25166388,22.08,1.09,-1.26,0.01,-0.02,1,0.02,0.02,-0.04,0,-0.02,1,-0.01,-0.03,-0.04,0,-0.65,0.68,-0.04,-2.46,2.53,1019.69,1000,1000,1000.11,25.74,0,3.72
25167640,22.08,1.09,-1.26,0.01,-0.02,1,0.08,-0.04,0.02,0,-0.02,1,-0.01,-0.03,-0.04,0,-0.65,0.68,-0.04,-2.46,2.53,1019.69,1000,1000,1000.11,25.74,0,3.73
25171108,22.08,1.09,-1.26,0.01,-0.02,1,0.02,-0.04,0.02,0,-0.02,1,-0.01,-0.03,-0.04,0,-0.65,0.68,-0.04,-2.46,2.53,1019.69,1000,1000,1000.12,26.84,0,3.73
25172161,22.08,1.09,-1.26,0.01,-0.02,1,0.02,-0.04,0.02,0,-0.02,1,-0.01,-0.03,-0.04,0,-0.65,0.68,-0.04,-2.46,2.53,1019.69,1000,1000,1000.12,26.84,0,3.73
25173558,22.08,1.09,-1.26,0.01,-0.02,1,0.08,-0.04,-0.04,0,-0.02,1,-0.01,-0.03,-0.04,0,-0.65,0.68,-0.04,-2.46,2.53,1019.69,1000,1000,1000.12,26.84,0,3.72
25177034,22.09,1.09,-1.26,0.01,-0.02,1,0.02,0.02,-0.04,0,-0.02,1,-0.01,-0.03,-0.04,0,-0.65,0.68,-0.04,-2.46,2.53,1019.69,1000,1000,1000.12,26.62,0,3.73
25178079,22.09,1.09,-1.26,0.01,-0.02,1,0.02,-0.04,-0.04,0,-0.02,1,-0.01,-0.03,-0.04,0,-0.65,0.68,-0.04,-2.46,2.53,1019.69,1000,1000,1000.12,26.62,0,3.73
25179493,22.09,1.09,-1.26,0.01,-0.02,1,-0.04,0.02,-0.04,0,-0.02,1,-0.01,-0.03,-0.04,0,-0.65,0.68,-0.04,-2.46,2.53,1019.69,1000,1000,1000.12,26.62,0,3.73
25183453,22.09,1.09,-1.26,0.01,-0.02,1,-0.04,0.02,0.02,0,-0.02,1,-0.01,-0.03,-0.04,0,-0.65,0.68,-0.04,-2.46,2.53,1019.68,1000,1000,1000.12,26.62,0,3.72
25184627,22.09,1.09,-1.26,0.01,-0.02,1,0.02,-0.1,0.02,0,-0.02,1,-0.01,-0.03,-0.04,0,-0.65,0.68,-0.04,-2.46,2.53,1019.68,1000,1000,1000.12,26.62,0,3.73
25185686,22.09,1.09,-1.26,0.01,-0.02,1,-0.04,-0.1,-0.04,0,-0.02,1,-0.01,-0.03,-0.04,0,-0.65,0.68,-0.04,-2.46,2.53,1019.68,1000,1000,1000.12,26.62,0,3.73
25189197,22.1,1.09,-1.26,0.01,-0.02,1,-0.04,-0.04,-0.04,0,-0.02,1,-0.01,-0.03,-0.04,0,-0.65,0.68,-0.04,-2.46,2.53,1019.68,1000,1000,1000.12,26.05,0,3.73
25190336,22.1,1.08,-1.26,0.01,-0.02,1,0.02,-0.04,-0.04,0,-0.02,1,-0.01,-0.03,-0.04,0,-0.65,0.68,-0.04,-2.46,2.53,1019.68,1000,1000,1000.12,26.05,0,3.73
25191376,22.1,1.08,-1.26,0.01,-0.02,1,0.02,-0.04,-0.04,0,-0.02,1,-0.01,-0.03,-0.04,0,-0.65,0.68,-0.04,-2.46,2.53,1019.68,1000,1000,1000.12,26.05,0,3.73
25194778,22.1,1.08,-1.26,0.01,-0.02,1,0.08,-0.04,-0.04,0,-0.02,1,-0.01,-0.03,-0.04,0,-0.65,0.68,-0.04,-2.46,2.53,1019.68,1000,1000,1000.13,28.31,0,3.73
25195882,22.1,1.08,-1.26,0.01,-0.02,1,0.02,-0.04,-0.1,0,-0.02,1,-0.01,-0.03,-0.04,0,-0.65,0.68,-0.04,-2.46,2.53,1019.68,1000,1000,1000.13,28.31,0,3.74
25197252,22.1,1.08,-1.26,0.01,-0.02,1,-0.04,-0.04,-0.1,0,-0.02,1,-0.01,-0.03,-0.04,0,-0.65,0.68,-0.04,-2.46,2.53,1019.68,1000,1000,1000.13,28.31,0,3.73
25200863,22.11,1.08,-1.26,0.01,-0.02,1,0.02,-0.04,0.02,0,-0.02,1,-0.01,-0.03,-0.04,0,-0.65,0.68,-0.04,-2.46,2.53,1019.68,1000,1000,1000.13,26.35,0,3.72
25204198,22.11,1.08,-1.26,0.01,-0.02,1,0.02,-0.04,-0.04,0,-0.02,1,-0.01,-0.03,-0.04,0,-0.65,0.68,-0.04,-2.46,2.53,1019.68,1000,1000,1000.13,26.35,0,3.73
25209128,22.11,1.08,-1.26,0.01,-0.02,1,0.08,0.02,-0.04,0,-0.02,1,-0.01,-0.03,-0.04,0,-0.65,0.68,-0.04,-2.46,2.53,1019.67,1000,1000,1000.13,26.58,0,3.66
25212457,22.12,1.08,-1.26,0.01,-0.02,1,0.08,-0.04,-0.1,0,-0.02,1,-0.01,-0.03,-0.04,0,-0.65,0.68,-0.04,-2.46,2.53,1019.67,1000,1000,1000.13,26.58,0,3.73
25217622,22.12,1.08,-1.26,0.01,-0.02,1,0.02,-0.04,-0.04,0,-0.02,1,-0.01,-0.03,-0.04,0,-0.65,0.68,-0.04,-2.46,2.53,1019.67,1000,1000,1000.14,27.53,0,3.73
25218699,22.12,1.08,-1.26,0.01,-0.02,1,0.02,-0.1,-0.04,0,-0.02,1,-0.01,-0.03,-0.04,0,-0.65,0.68,-0.04,-2.46,2.53,1019.67,1000,1000,1000.14,27.53,0,3.73
25233177,22.13,1.08,-1.26,0.01,-0.02,1,0.02,0.02,-0.04,0,-0.02,1,-0.01,-0.03,-0.04,0,-0.65,0.68,-0.04,-2.45,2.53,1019.67,1000,1000,1000.14,29.07,0,3.73
25236740,22.15,1.08,-1.26,0.01,-0.02,1,-0.04,-0.04,-0.04,0,-0.02,1,-0.01,-0.04,-0.04,0,-0.65,0.68,-0.04,-2.45,2.53,1019.66,1000,1000,1000.14,29.07,0,3.74
25237789,22.15,1.08,-1.26,0.01,-0.02,1,0.02,0.02,-0.04,0,-0.02,1,-0.01,-0.04,-0.04,0,-0.65,0.68,-0.04,-2.45,2.53,1019.66,1000,1000,1000.14,29.07,0,3.74
25238810,22.15,1.07,-1.26,0.01,-0.02,1,0.02,-0.04,-0.04,0,-0.02,1,-0.01,-0.04,-0.04,0,-0.65,0.68,-0.04,-2.45,2.53,1019.66,1000,1000,1000.14,29.07,0,3.73
25239818,22.15,1.07,-1.26,0.01,-0.02,1,0.08,-0.04,-0.1,0,-0.02,1,-0.01,-0.04,-0.04,0,-0.65,0.68,-0.04,-2.45,2.53,1019.66,1000,1000,1000.14,29.07,0,3.74
25243547,22.16,1.07,-1.26,0.01,-0.02,1,0.08,-0.04,-0.04,0,-0.02,1,-0.01,-0.04,-0.04,0,-0.65,0.68,-0.04,-2.45,2.53,1019.66,1000,1000,1000.15,27.37,0,3.73
25244663,22.16,1.07,-1.26,0.01,-0.02,1,0.02,-0.04,-0.04,0,-0.02,1,-0.01,-0.04,-0.04,0,-0.65,0.68,-0.03,-2.45,2.53,1019.66,1000,1000,1000.15,27.37,0,3.71
25245704,22.16,1.07,-1.26,0.01,-0.02,1,0.02,-0.04,-0.04,0,-0.02,1,-0.01,-0.04,-0.04,0,-0.65,0.68,-0.03,-2.45,2.53,1019.66,1000,1000,1000.15,27.37,0,3.73
25249222,22.16,1.07,-1.26,0.01,-0.02,1,0.08,-0.1,-0.04,0,-0.02,1,-0.01,-0.04,-0.04,0,-0.65,0.68,-0.03,-2.45,2.53,1019.66,1000,1000,1000.15,27.24,0,3.73
25250531,22.16,1.07,-1.26,0.01,-0.02,1,0.02,0.02,-0.04,0,-0.02,1,-0.01,-0.04,-0.04,0,-0.65,0.68,-0.03,-2.45,2.53,1019.66,1000,1000,1000.15,27.24,0,3.74
25251576,22.16,1.07,-1.26,0.01,-0.02,1,0.02,0.02,-0.04,0,-0.02,1,-0.01,-0.04,-0.04,0,-0.65,0.68,-0.03,-2.45,2.53,1019.66,1000,1000,1000.15,27.24,0,3.73
25255032,22.17,1.07,-1.26,0.01,-0.02,1,0.02,-0.04,-0.04,0,-0.02,1,-0.01,-0.04,-0.04,0,-0.65,0.68,-0.03,-2.45,2.53,1019.66,1000,1000,1000.15,26.19,0,3.73
25256123,22.17,1.07,-1.26,0.01,-0.02,1,-0.04,-0.04,-0.04,0,-0.02,1,-0.01,-0.04,-0.04,0,-0.65,0.68,-0.03,-2.45,2.53,1019.65,1000,1000,1000.15,26.19,0,3.73
25257377,22.17,1.07,-1.26,0.01,-0.02,1,-0.04,-0.04,-0.04,0,-0.02,1,-0.01,-0.04,-0.04,0,-0.65,0.68,-0.03,-2.45,2.53,1019.65,1000,1000,1000.15,26.19,0,3.72
25260749,22.17,1.07,-1.26,0.01,-0.02,1,-0.04,-0.04,-0.04,0,-0.02,1,-0.01,-0.04,-0.04,0,-0.65,0.68,-0.03,-2.45,2.53,1019.65,1000,1000,1000.15,25.3,0,3.73
25261844,22.17,1.07,-1.26,0.01,-0.02,1,0.02,-0.04,-0.04,0,-0.02,1,-0.01,-0.04,-0.04,0,-0.65,0.68,-0.03,-2.45,2.53,1019.65,1000,1000,1000.15,25.3,0,3.72
25262862,22.17,1.07,-1.26,0.01,-0.02,1,0.02,-0.04,0.08,0,-0.02,1,-0.01,-0.04,-0.04,0,-0.65,0.68,-0.03,-2.45,2.53,1019.65,1000,1000,1000.15,25.3,0,3.74
25263867,22.17,1.07,-1.26,0.01,-0.02,1,0.08,-0.04,0.02,0,-0.02,1,-0.01,-0.04,-0.04,0,-0.65,0.68,-0.03,-2.45,2.53,1019.65,1000,1000,1000.16,25.3,0,3.73
25267272,22.18,1.07,-1.26,0.01,-0.02,1,-0.04,-0.04,0.02,0,-0.02,1,-0.01,-0.04,-0.04,0,-0.65,0.68,-0.03,-2.45,2.53,1019.65,1000,1000,1000.16,26.23,0,3.73
25268381,22.18,1.07,-1.26,0.01,-0.02,1,0.02,0.02,0.02,0,-0.02,1,-0.01,-0.04,-0.04,0,-0.65,0.68,-0.03,-2.45,2.53,1019.65,1000,1000,1000.16,26.23,0,3.73
25269407,22.18,1.07,-1.26,0.01,-0.02,1,0.02,0.02,-0.04,0,-0.02,1,-0.01,-0.04,-0.04,0,-0.65,0.68,-0.03,-2.45,2.53,1019.65,1000,1000,1000.16,26.23,0,3.73
25272807,22.18,1.07,-1.26,0.01,-0.02,1,0.02,-0.04,0.02,0,-0.02,1,-0.01,-0.04,-0.04,0,-0.65,0.68,-0.03,-2.45,2.53,1019.65,1000,1000,1000.16,27.27,0,3.73
25273892,22.18,1.07,-1.26,0.01,-0.02,1,0.08,-0.04,-0.04,0,-0.02,1,-0.01,-0.04,-0.04,0,-0.65,0.68,-0.03,-2.45,2.53,1019.65,1000,1000,1000.16,27.27,0,3.73
25275165,22.18,1.07,-1.26,0.01,-0.02,1,0.02,0.02,-0.1,0,-0.02,1,-0.01,-0.04,-0.04,0,-0.65,0.68,-0.03,-2.45,2.53,1019.65,1000,1000,1000.16,27.27,0,3.73
25278576,22.19,1.07,-1.26,0.01,-0.02,1,0.02,-0.04,-0.04,0,-0.02,1,-0.01,-0.04,-0.04,0,-0.65,0.68,-0.03,-2.45,2.53,1019.64,1000,1000,1000.16,27.27,0,3.74
25279673,22.19,1.07,-1.26,0.01,-0.02,1,0.02,-0.04,-0.1,0,-0.02,1,-0.01,-0.04,-0.04,0,-0.65,0.68,-0.03,-2.45,2.53,1019.64,1000,1000,1000.16,27.27,0,3.73
25281056,22.19,1.07,-1.26,0.01,-0.02,1,0.02,-0.1,-0.04,0,-0.02,1,-0.01,-0.04,-0.04,0,-0.65,0.68,-0.03,-2.45,2.53,1019.64,1000,1000,1000.16,27.27,0,3.75
25284479,22.19,1.07,-1.26,0.01,-0.02,1,-0.04,0.02,0.02,0,-0.02,1,-0.01,-0.04,-0.04,0,-0.65,0.68,-0.03,-2.45,2.53,1019.64,1000,1000,1000.16,27.27,0,3.73
25285585,22.19,1.07,-1.26,0.01,-0.02,1,-0.04,-0.04,-0.04,0,-0.02,1,-0.01,-0.04,-0.04,0,-0.65,0.68,-0.03,-2.45,2.53,1019.64,1000,1000,1000.16,27.27,0,3.73
25286621,22.19,1.07,-1.26,0.01,-0.02,1,0.02,-0.04,-0.04,0,-0.02,1,-0.01,-0.04,-0.04,0,-0.65,0.68,-0.03,-2.45,2.53,1019.64,1000,1000,1000.17,27.27,0,3.73
25290231,22.2,1.06,-1.26,0.01,-0.02,1,0.02,-0.04,0.02,0,-0.02,1,-0.01,-0.04,-0.04,0,-0.65,0.68,-0.03,-2.45,2.53,1019.64,1000,1000,1000.17,28.57,0,3.73
25291332,22.2,1.06,-1.26,0.01,-0.02,1,0.02,-0.04,0.02,0,-0.02,1,-0.01,-0.04,-0.04,0,-0.65,0.68,-0.03,-2.45,2.53,1019.64,1000,1000,1000.17,28.57,0,3.73
25292359,22.2,1.06,-1.26,0.01,-0.02,1,-0.04,-0.04,0.02,0,-0.02,1,-0.01,-0.03,-0.04,0,-0.65,0.68,-0.03,-2.45,2.53,1019.64,1000,1000,1000.17,28.57,0,3.73
25293388,22.2,1.06,-1.26,0.01,-0.02,1,-0.04,0.02,-0.04,0,-0.02,1,-0.01,-0.03,-0.04,0,-0.65,0.68,-0.03,-2.45,2.53,1019.64,1000,1000,1000.17,28.57,0,3.73
25296751,22.21,1.06,-1.26,0.01,-0.02,1,-0.04,-0.1,-0.04,0,-0.02,1,-0.01,-0.03,-0.04,0,-0.65,0.68,-0.03,-2.45,2.53,1019.64,1000,1000,1000.17,29.29,0,3.73
25297828,22.21,1.06,-1.26,0.01,-0.02,1,0.02,0.02,-0.04,0,-0.02,1,-0.01,-0.03,-0.04,0,-0.65,0.68,-0.03,-2.45,2.53,1019.64,1000,1000,1000.17,29.29,0,3.64
25298836,22.21,1.06,-1.26,0.01,-0.02,1,0.02,-0.04,-0.04,0,-0.02,1,-0.01,-0.03,-0.04,0,-0.65,0.68,-0.03,-2.45,2.53,1019.64,1000,1000,1000.17,29.29,0,3.73
25299837,22.21,1.06,-1.26,0.01,-0.02,1,0.02,0.02,-0.1,0,-0.02,1,-0.01,-0.03,-0.04,0,-0.65,0.68,-0.03,-2.45,2.53,1019.64,1000,1000,1000.17,29.29,0,3.73
25304447,22.22,1.06,-1.26,0.01,-0.02,1,0.02,-0.04,-0.04,0,-0.02,1,-0.01,-0.03,-0.04,0,-0.65,0.68,-0.03,-2.45,2.53,1019.63,1000,1000,1000.17,28.21,0,3.63
25308049,22.22,1.06,-1.26,0.01,-0.02,1,-0.04,-0.04,-0.04,0,-0.02,1,-0.01,-0.03,-0.04,0,-0.65,0.68,-0.03,-2.45,2.53,1072.13,1033.12,1052.07,1052.67,28.21,13.39,3.73
25313025,22.23,1.06,-1.26,0.01,-0.02,1,-0.04,-0.1,-0.04,0,-0.02,1,-0.01,-0.03,-0.04,0,-0.65,0.68,-0.03,-2.45,2.53,1072.13,1033.13,1052.07,1052.68,27.62,13.39,3.73
25316240,22.23,1.06,-1.26,0.01,-0.02,1,-0.04,-0.04,-0.04,0,-0.02,1,-0.01,-0.03,-0.04,0,-0.65,0.68,-0.03,-2.45,2.53,1072.13,1033.13,1052.07,1052.68,27.62,13.39,3.73
25321244,22.23,1.06,-1.26,0.01,-0.02,1,0.02,-0.04,-0.04,0,-0.02,1,-0.01,-0.03,-0.04,0,-0.65,0.68,-0.03,-2.45,2.53,1072.13,1033.13,1052.07,1052.68,27.93,13.39,3.73
25333631,22.24,1.06,-1.26,0.01,-0.02,1,-0.04,-0.04,-0.04,0,-0.02,1,-0.01,-0.03,-0.04,0,-0.65,0.68,-0.03,-2.45,2.53,1072.13,1033.13,1052.07,1052.68,27.93,13.39,3.72
25337241,22.25,1.05,-1.26,0.01,-0.02,1,0.02,0.02,-0.04,0,-0.02,1,-0.01,-0.03,-0.04,0,-0.65,0.68,-0.03,-2.45,2.53,1072.12,1033.13,1052.06,1052.68,27.69,13.39,3.7
