timestamp,yaw,pitch,roll,raw accel x,raw accel y,raw accel z,raw gyro x,raw gyro y,raw gyro z,filtered accel x,filtered accel y,filtered accel z,filtered gyro x,filtered gyro y,filtered gyro z,angle out yaw,angle out pitch,angle out roll,rate out yaw,rate out pitch,rate out roll,motor 1,motor 2 ,motor 3,motor 4,mag heading,throttle,voltage
20779573,-168.09,-3.42,0.16,0.04,0,1,-0.04,-0.23,-0.6,0.03,0,1,-0.03,-0.31,-0.65,0,0.98,-0.52,0.1,3.35,-2.08,1000,1020.91,1000,1005.41,183.39,0,3.78
20789605,-168.1,-3.42,0.16,0.03,0,1,-0.04,-0.31,-0.6,0.03,0,1,-0.03,-0.31,-0.65,0,0.98,-0.52,0.1,3.36,-2.08,1000,1020.91,1000,1005.41,190.31,0,3.79
20843249,-168.15,-3.42,0.16,0.04,0,0.99,-0.04,-0.31,-0.66,0.03,0,1,-0.03,-0.31,-0.65,0,0.98,-0.52,0.1,3.36,-2.08,1000,1020.91,1000,1005.41,188.91,0,3.8
20860943,-168.23,-3.42,0.16,0.04,0,1,0.01,-0.36,-0.6,0.03,0,1,-0.03,-0.31,-0.65,0,0.98,-0.52,0.1,3.36,-2.08,1000,1020.91,1000,1005.41,182.87,0,3.79
20878801,-168.24,-3.43,0.16,0.03,0,0.99,-0.04,-0.4,-0.54,0.03,0,1,-0.03,-0.31,-0.65,0,0.98,-0.52,0.1,3.36,-2.08,1000,1020.91,1000,1005.41,191.58,0,3.74
20884515,-168.26,-3.43,0.16,0.04,0,0.99,0.01,-0.27,-0.66,0.03,0,1,-0.03,-0.31,-0.64,0,0.98,-0.52,0.1,3.36,-2.08,1000,1020.91,1000,1005.41,179.93,0,3.79
20888036,-168.27,-3.43,0.16,0.03,0,1,-0.04,-0.23,-0.6,0.03,0,1,-0.03,-0.31,-0.64,0,0.98,-0.52,0.1,3.36,-2.08,1000,1020.91,1000,1005.41,184.04,0,3.79
20889056,-168.27,-3.43,0.16,0.03,0,0.99,-0.04,-0.23,-0.6,0.03,0,1,-0.03,-0.31,-0.64,0,0.98,-0.52,0.1,3.36,-2.08,1000,1020.91,1000,1005.41,184.04,0,3.79
20890267,-168.27,-3.43,0.16,0.04,0,0.99,-0.04,-0.31,-0.6,0.03,0,1,-0.03,-0.31,-0.64,0,0.98,-0.52,0.1,3.36,-2.08,1000,1020.91,1000,1005.41,184.04,0,3.79
20895617,-168.28,-3.43,0.16,0.03,0,1,0.01,-0.36,-0.72,0.03,0,1,-0.03,-0.31,-0.64,0,0.98,-0.52,0.1,3.36,-2.08,1000,1020.91,1000,1005.41,184.04,0,3.77
20898947,-168.29,-3.43,0.16,0.03,0,1,-0.04,-0.31,-0.72,0.03,0,1,-0.03,-0.31,-0.64,0,0.98,-0.52,0.1,3.36,-2.08,1000,1020.91,1000,1005.41,184.04,0,3.79
20903998,-168.29,-3.43,0.16,0.03,0,1,-0.08,-0.36,-0.66,0.03,0,1,-0.04,-0.31,-0.64,0,0.98,-0.52,0.1,3.36,-2.08,1000,1020.91,1000,1005.41,189.65,0,3.79
20907281,-168.3,-3.43,0.16,0.04,0,0.99,0.01,-0.27,-0.66,0.03,0,1,-0.04,-0.31,-0.63,0,0.98,-0.52,0.1,3.36,-2.08,1000,1020.92,1000,1005.41,189.65,0,3.79
20910805,-168.3,-3.43,0.16,0.03,0,1,0.01,-0.27,-0.66,0.03,0,1,-0.04,-0.31,-0.63,0,0.98,-0.52,0.1,3.36,-2.08,1000,1020.92,1000,1005.41,189.12,0,3.8
20911823,-168.3,-3.43,0.16,0.03,0,1,-0.04,-0.23,-0.66,0.03,0,1,-0.04,-0.31,-0.63,0,0.98,-0.52,0.1,3.36,-2.08,1000,1020.92,1000,1005.41,189.12,0,3.79
20912831,-168.3,-3.43,0.16,0.04,0,1,-0.08,-0.27,-0.6,0.03,0,1,-0.04,-0.31,-0.63,0,0.98,-0.52,0.1,3.36,-2.08,1000,1020.92,1000,1005.41,189.12,0,3.79
20916408,-168.31,-3.43,0.16,0.03,0,1,-0.04,-0.31,-0.6,0.03,0,1,-0.04,-0.31,-0.63,0,0.98,-0.52,0.1,3.36,-2.08,1000,1020.92,1000,1005.41,187.9,0,3.79
20917459,-168.31,-3.43,0.16,0.03,0,0.99,-0.04,-0.31,-0.6,0.03,0,1,-0.04,-0.31,-0.63,0,0.98,-0.52,0.1,3.36,-2.08,1000,1020.92,1000,1005.41,187.9,0,3.79
20918474,-168.31,-3.43,0.16,0.03,0,0.99,-0.04,-0.31,-0.6,0.03,0,1,-0.04,-0.31,-0.62,0,0.98,-0.52,0.1,3.36,-2.08,1000,1020.92,1000,1005.41,187.9,0,3.79
20919468,-168.31,-3.43,0.16,0.04,0,1,-0.04,-0.31,-0.6,0.03,0,1,-0.04,-0.31,-0.62,0,0.98,-0.52,0.1,3.36,-2.08,1000,1020.92,1000,1005.41,187.9,0,3.79
20922922,-168.32,-3.43,0.16,0.03,0,1,-0.04,-0.31,-0.66,0.03,0,1,-0.04,-0.31,-0.62,0,0.98,-0.52,0.1,3.36,-2.08,1000,1020.92,1000,1005.41,188.36,0,3.82
20924111,-168.32,-3.43,0.16,0.03,0,0.99,-0.04,-0.31,-0.6,0.03,0,1,-0.04,-0.31,-0.62,0,0.98,-0.52,0.1,3.36,-2.08,1000,1020.92,1000,1005.41,188.36,0,3.79
20925238,-168.32,-3.43,0.16,0.03,0,0.99,0.01,-0.27,-0.6,0.03,0,1,-0.04,-0.31,-0.62,0,0.98,-0.52,0.1,3.36,-2.08,1000,1020.92,1000,1005.41,188.36,0,3.79
20939909,-168.33,-3.43,0.16,0.03,0,0.99,-0.04,-0.31,-0.66,0.03,0,1,-0.04,-0.31,-0.62,0,0.98,-0.52,0.1,3.36,-2.08,1000,1020.92,1000,1005.41,188.27,0,3.79
20943497,-168.34,-3.43,0.16,0.04,0,1,0.01,-0.36,-0.6,0.03,0,1,-0.04,-0.31,-0.62,0,0.98,-0.52,0.1,3.36,-2.08,1000,1020.92,1000,1005.41,188.27,0,3.79
20944524,-168.35,-3.43,0.16,0.04,0,1,0.01,-0.36,-0.66,0.03,0,1,-0.04,-0.31,-0.62,0,0.98,-0.52,0.1,3.36,-2.08,1000,1020.92,1000,1005.41,188.27,0,3.79
20945797,-168.35,-3.43,0.16,0.03,0,1,-0.04,-0.31,-0.66,0.03,0,1,-0.04,-0.31,-0.61,0,0.98,-0.52,0.1,3.36,-2.08,1000,1020.92,1000,1005.41,188.27,0,3.84
20946816,-168.35,-3.43,0.16,0.03,0,1,0.01,-0.36,-0.6,0.03,0,1,-0.04,-0.31,-0.61,0,0.98,-0.52,0.1,3.36,-2.08,1000,1020.92,1000,1005.41,188.27,0,3.79
20950333,-168.36,-3.43,0.16,0.03,0,1,0.01,-0.27,-0.54,0.03,0,1,-0.04,-0.31,-0.61,0,0.98,-0.52,0.1,3.36,-2.08,1000,1020.92,1000,1005.41,184.14,0,3.79
20951366,-168.36,-3.43,0.16,0.03,0,0.99,0.01,-0.27,-0.6,0.03,0,1,-0.04,-0.31,-0.61,0,0.98,-0.52,0.1,3.36,-2.08,1000,1020.92,1000,1005.41,184.14,0,3.79
20952690,-168.36,-3.43,0.16,0.03,0,1,0.05,-0.31,-0.66,0.03,0,1,-0.04,-0.31,-0.61,0,0.98,-0.52,0.1,3.36,-2.08,1000,1020.92,1000,1005.41,184.14,0,3.79
20956202,-168.37,-3.43,0.16,0.03,0,0.99,-0.04,-0.31,-0.6,0.03,0,1,-0.04,-0.31,-0.61,0,0.98,-0.52,0.1,3.36,-2.08,1000,1020.92,1000,1005.41,183.07,0,3.79
20957253,-168.37,-3.43,0.16,0.03,0,1,-0.04,-0.31,-0.6,0.03,0,1,-0.04,-0.31,-0.61,0,0.98,-0.52,0.1,3.36,-2.08,1000,1020.92,1000,1005.41,183.07,0,3.79
20958635,-168.38,-3.43,0.16,0.04,0,0.99,-0.04,-0.23,-0.66,0.03,0,1,-0.04,-0.31,-0.61,0,0.98,-0.52,0.1,3.36,-2.08,1000,1020.92,1000,1005.41,183.07,0,3.79
20962150,-168.38,-3.43,0.16,0.03,0,1,-0.04,-0.31,-0.6,0.03,0,1,-0.04,-0.31,-0.61,0,0.98,-0.52,0.1,3.36,-2.08,1000,1020.92,1000,1005.41,187.54,0,3.79
20963159,-168.38,-3.43,0.16,0.03,0,1,-0.04,-0.31,-0.6,0.03,0,1,-0.04,-0.31,-0.61,0,0.98,-0.52,0.1,3.36,-2.08,1000,1020.92,1000,1005.41,187.54,0,3.79
20964538,-168.38,-3.43,0.16,0.04,0,1,-0.04,-0.31,-0.72,0.03,0,1,-0.04,-0.31,-0.61,0,0.98,-0.52,0.1,3.36,-2.08,1000,1020.92,1000,1005.41,187.54,0,3.79
20968040,-168.39,-3.43,0.16,0.03,0,1,0.01,-0.27,-0.6,0.03,0,1,-0.04,-0.31,-0.61,0,0.98,-0.52,0.1,3.36,-2.08,1000,1020.92,1000,1005.41,185.43,0,3.79
20969053,-168.39,-3.43,0.16,0.03,0,1,-0.04,-0.31,-0.66,0.03,0,1,-0.04,-0.31,-0.61,0,0.98,-0.52,0.1,3.36,-2.08,1000,1020.92,1000,1005.41,185.43,0,3.87
20970065,-168.39,-3.43,0.16,0.03,0,1,-0.04,-0.31,-0.66,0.03,0,1,-0.04,-0.31,-0.61,0,0.98,-0.52,0.1,3.36,-2.08,1000,1020.92,1000,1005.41,185.43,0,3.79
20973551,-168.4,-3.43,0.16,0.04,0,1,0.05,-0.31,-0.54,0.03,0,1,-0.04,-0.31,-0.61,0,0.98,-0.52,0.1,3.36,-2.08,1000,1020.92,1000,1005.41,185.01,0,3.82
20974584,-168.4,-3.43,0.16,0.04,0,0.99,-0.04,-0.4,-0.6,0.03,0,1,-0.04,-0.31,-0.61,0,0.98,-0.52,0.1,3.36,-2.08,1000,1020.92,1000,1005.41,185.01,0,3.79
20975589,-168.4,-3.43,0.16,0.04,0,0.99,-0.04,-0.31,-0.6,0.03,0,1,-0.04,-0.31,-0.6,0,0.98,-0.52,0.1,3.36,-2.08,1000,1020.92,1000,1005.41,185.01,0,3.79
20976606,-168.41,-3.43,0.16,0.04,0,0.99,-0.04,-0.31,-0.6,0.03,0,1,-0.04,-0.31,-0.6,0,0.98,-0.52,0.1,3.36,-2.08,1000,1020.92,1000,1005.41,185.01,0,3.77
20980121,-168.41,-3.43,0.16,0.03,0,1,-0.08,-0.27,-0.54,0.03,0,1,-0.04,-0.31,-0.6,0,0.98,-0.52,0.1,3.36,-2.08,1000,1020.92,1000,1005.41,185.01,0,3.79
20981344,-168.42,-3.43,0.16,0.04,0,1,-0.08,-0.36,-0.6,0.03,0,1,-0.04,-0.31,-0.6,0,0.98,-0.52,0.1,3.36,-2.08,1000,1020.92,1000,1005.41,185.01,0,3.79
21009788,-168.47,-3.43,0.16,0.04,0,0.99,0.01,-0.36,-0.66,0.03,0,1,-0.04,-0.31,-0.6,0,0.98,-0.52,0.1,3.36,-2.08,1000,1020.92,1000,1005.41,185.01,0,3.8
21013195,-168.48,-3.43,0.16,0.04,0,0.99,0.01,-0.27,-0.72,0.03,0,1,-0.04,-0.31,-0.6,0,0.98,-0.52,0.1,3.36,-2.08,1000,1020.92,1000,1005.41,185.01,0,3.79
21064400,-168.5,-3.43,0.16,0.03,0,0.99,-0.04,-0.31,-0.66,0.03,0,1,-0.04,-0.31,-0.6,0,0.98,-0.52,0.1,3.36,-2.08,1000,1020.92,1000,1005.41,187.22,0,3.79
21069531,-168.59,-3.43,0.16,0.03,0,1,-0.04,-0.31,-0.66,0.03,0,1,-0.04,-0.31,-0.6,0,0.98,-0.52,0.1,3.36,-2.08,1000,1020.93,1000,1005.41,182.73,0,3.8
21072828,-168.6,-3.43,0.16,0.04,0,0.99,-0.04,-0.31,-0.66,0.03,0,1,-0.04,-0.31,-0.6,0,0.98,-0.52,0.1,3.36,-2.08,1000,1020.93,1000,1005.41,182.73,0,3.79
21077897,-168.61,-3.43,0.16,0.04,0,0.99,-0.08,-0.27,-0.66,0.03,0,1,-0.04,-0.31,-0.6,0,0.98,-0.52,0.1,3.36,-2.08,1000,1020.93,1000,1005.41,187.71,0,3.78
21081532,-168.61,-3.43,0.16,0.03,0,0.99,-0.08,-0.27,-0.72,0.03,0,1,-0.04,-0.31,-0.6,0,0.98,-0.52,0.1,3.36,-2.08,1000,1020.93,1000,1005.41,187.7,0,3.79
21084777,-168.62,-3.43,0.16,0.03,0,0.99,-0.04,-0.31,-0.72,0.03,0,1,-0.04,-0.31,-0.6,0,0.98,-0.52,0.1,3.36,-2.08,1000,1020.93,1000,1005.41,187.7,0,3.79
21088331,-168.62,-3.43,0.16,0.03,0,1,-0.04,-0.31,-0.66,0.03,0,1,-0.04,-0.31,-0.6,0,0.98,-0.52,0.1,3.36,-2.08,1000,1020.93,1000,1005.41,186.87,0,3.79
21089362,-168.62,-3.43,0.16,0.03,0,1,-0.04,-0.31,-0.6,0.03,0,1,-0.04,-0.31,-0.61,0,0.98,-0.52,0.1,3.36,-2.08,1000,1020.93,1000,1005.41,186.87,0,3.79
21090386,-168.63,-3.43,0.16,0.04,0,1,0.01,-0.27,-0.66,0.03,0,1,-0.04,-0.31,-0.61,0,0.98,-0.52,0.1,3.36,-2.08,1000,1020.93,1000,1005.41,186.87,0,3.79
21093844,-168.63,-3.43,0.16,0.03,0,0.99,-0.04,-0.31,-0.6,0.03,0,1,-0.04,-0.31,-0.61,0,0.98,-0.52,0.1,3.36,-2.08,1000,1020.93,1000,1005.41,187.96,0,3.79
21094860,-168.63,-3.43,0.16,0.03,0,1,-0.04,-0.31,-0.66,0.03,0,1,-0.04,-0.31,-0.61,0,0.98,-0.52,0.1,3.36,-2.08,1000,1020.93,1000,1005.41,187.96,0,3.79
21095871,-168.63,-3.43,0.16,0.03,0,1,0.01,-0.36,-0.66,0.03,0,1,-0.04,-0.31,-0.61,0,0.98,-0.52,0.1,3.36,-2.08,1000,1020.93,1000,1005.41,187.96,0,3.79
21096856,-168.63,-3.43,0.16,0.03,0,1,-0.04,-0.4,-0.66,0.03,0,1,-0.04,-0.31,-0.61,0,0.98,-0.52,0.1,3.36,-2.08,1000,1020.92,1000,1005.41,187.96,0,3.79
21100387,-168.64,-3.43,0.16,0.04,0,1,-0.04,-0.31,-0.66,0.03,0,1,-0.04,-0.31,-0.62,0,0.98,-0.52,0.1,3.36,-2.08,1000,1020.92,1000,1005.41,189.24,0,3.79
21101694,-168.64,-3.43,0.16,0.03,0,1,0.05,-0.31,-0.66,0.03,0,1,-0.04,-0.31,-0.62,0,0.98,-0.52,0.1,3.36,-2.08,1000,1020.92,1000,1005.42,189.24,0,3.79
21102704,-168.64,-3.43,0.16,0.03,0,1,0.01,-0.36,-0.66,0.03,0,1,-0.04,-0.31,-0.62,0,0.98,-0.52,0.1,3.36,-2.08,1000,1020.92,1000,1005.42,189.24,0,3.81
21106547,-168.64,-3.43,0.16,0.04,0,1,-0.04,-0.31,-0.66,0.03,0,1,-0.04,-0.31,-0.62,0,0.98,-0.52,0.1,3.36,-2.08,1000,1020.92,1000,1005.42,192.29,0,3.79
21107656,-168.64,-3.43,0.16,0.04,0,1,-0.04,-0.31,-0.6,0.03,0,1,-0.04,-0.31,-0.62,0,0.98,-0.52,0.1,3.36,-2.08,1000,1020.92,1000,1005.42,192.29,0,3.79
21108652,-168.64,-3.43,0.16,0.03,0,1,-0.04,-0.31,-0.66,0.03,0,1,-0.04,-0.31,-0.63,0,0.98,-0.52,0.1,3.36,-2.08,1000,1020.92,1000,1005.42,192.29,0,3.79
21112324,-168.64,-3.43,0.16,0.04,0,1,-0.08,-0.36,-0.66,0.03,0,1,-0.04,-0.31,-0.63,0,0.98,-0.52,0.1,3.36,-2.08,1000,1020.92,1000,1005.42,192.29,0,3.79
21115746,-168.65,-3.43,0.16,0.04,0,1,-0.04,-0.31,-0.66,0.03,0,1,-0.04,-0.31,-0.63,0,0.98,-0.52,0.1,3.36,-2.08,1000,1020.92,1000,1005.42,192.29,0,3.79
21120747,-168.65,-3.43,0.16,0.03,0,1,-0.08,-0.36,-0.66,0.03,0,1,-0.04,-0.31,-0.63,0,0.98,-0.52,0.1,3.36,-2.08,1000,1020.92,1000,1005.42,187.27,0,3.79
21124058,-168.66,-3.43,0.16,0.03,0,0.99,0.01,-0.36,-0.6,0.03,0,1,-0.04,-0.31,-0.63,0,0.98,-0.52,0.1,3.36,-2.08,1000,1020.92,1000,1005.42,187.27,0,3.79
21129126,-168.67,-3.43,0.16,0.03,0,1,0.01,-0.27,-0.66,0.03,0,1,-0.04,-0.31,-0.63,0,0.98,-0.52,0.1,3.36,-2.08,1000,1020.92,1000,1005.42,182.98,0,3.8
21130330,-168.67,-3.43,0.16,0.03,0,1,0.05,-0.31,-0.66,0.03,0,1,-0.04,-0.31,-0.64,0,0.98,-0.52,0.1,3.36,-2.08,1000,1020.92,1000,1005.42,182.98,0,3.75
21144853,-168.68,-3.43,0.16,0.04,0,0.99,-0.04,-0.23,-0.6,0.03,0,1,-0.04,-0.31,-0.64,0,0.98,-0.52,0.1,3.36,-2.08,1000,1020.92,1000,1005.42,186.38,0,3.79
21148442,-168.7,-3.43,0.16,0.04,0,1,0.01,-0.27,-0.66,0.03,0,1,-0.04,-0.31,-0.64,0,0.98,-0.52,0.1,3.36,-2.08,1000,1020.92,1000,1005.42,187.85,0,3.8
21149477,-168.7,-3.43,0.16,0.04,0,1,0.01,-0.36,-0.66,0.03,0,1,-0.04,-0.31,-0.64,0,0.98,-0.52,0.1,3.36,-2.08,1000,1020.92,1000,1005.42,187.85,0,3.79
21150469,-168.7,-3.43,0.16,0.04,0,1,0.01,-0.36,-0.66,0.03,0,1,-0.04,-0.31,-0.64,0,0.98,-0.52,0.1,3.36,-2.08,1000,1020.92,1000,1005.42,187.85,0,3.67
21153920,-168.71,-3.43,0.16,0.03,0,1,-0.04,-0.23,-0.6,0.03,0,1,-0.04,-0.31,-0.64,0,0.98,-0.52,0.1,3.36,-2.08,1000,1020.92,1000,1005.42,187.94,0,3.79
21154992,-168.71,-3.43,0.16,0.04,0,0.99,0.05,-0.31,-0.66,0.03,0,1,-0.04,-0.31,-0.64,0,0.98,-0.52,0.1,3.36,-2.08,1000,1020.92,1000,1005.42,187.94,0,3.79
21155980,-168.71,-3.43,0.16,0.04,0,0.99,0.01,-0.27,-0.66,0.03,0,1,-0.04,-0.31,-0.64,0,0.98,-0.52,0.1,3.36,-2.08,1000,1020.92,1000,1005.42,187.94,0,3.8
21159492,-168.71,-3.43,0.16,0.04,0,0.99,-0.04,-0.31,-0.66,0.03,0,1,-0.03,-0.31,-0.65,0,0.98,-0.52,0.1,3.36,-2.08,1000,1020.92,1000,1005.42,187.33,0,3.79
21160522,-168.71,-3.43,0.16,0.04,0,0.99,-0.04,-0.31,-0.66,0.03,0,1,-0.03,-0.31,-0.65,0,0.98,-0.52,0.1,3.36,-2.08,1000,1020.92,1000,1005.42,187.33,0,3.79
21161840,-168.72,-3.43,0.16,0.04,0.01,0.99,-0.08,-0.36,-0.72,0.03,0,1,-0.03,-0.31,-0.65,0,0.98,-0.52,0.1,3.36,-2.08,1000,1020.92,1000,1005.42,187.33,0,3.79
21162858,-168.72,-3.43,0.16,0.04,0,0.99,-0.08,-0.27,-0.72,0.03,0,1,-0.03,-0.31,-0.65,0,0.98,-0.52,0.1,3.36,-2.08,1000,1020.92,1000,1005.42,187.33,0,3.79
21166418,-168.72,-3.43,0.16,0.04,0,0.99,-0.08,-0.36,-0.66,0.03,0,1,-0.03,-0.31,-0.65,0,0.98,-0.52,0.1,3.36,-2.08,1000,1020.92,1000,1005.42,186.44,0,3.79
21167480,-168.73,-3.43,0.16,0.04,0,0.99,-0.04,-0.31,-0.66,0.03,0,1,-0.03,-0.31,-0.65,0,0.98,-0.52,0.1,3.36,-2.08,1000,1020.92,1000,1005.42,186.44,0,3.79
21168761,-168.73,-3.43,0.16,0.03,0,1,-0.04,-0.31,-0.66,0.03,0,1,-0.03,-0.31,-0.65,0,0.98,-0.52,0.1,3.36,-2.08,1000,1020.92,1000,1005.42,186.44,0,3.79
21172272,-168.73,-3.43,0.16,0.03,0,0.99,0.01,-0.27,-0.66,0.03,0,1,-0.03,-0.31,-0.65,0,0.98,-0.52,0.1,3.36,-2.08,1000,1020.92,1000,1005.42,189.65,0,3.79
21173307,-168.73,-3.43,0.16,0.03,0,1,-0.04,-0.31,-0.72,0.03,0,1,-0.03,-0.31,-0.65,0,0.98,-0.52,0.1,3.36,-2.08,1000,1020.92,1000,1005.42,189.65,0,3.79
21174681,-168.73,-3.43,0.16,0.03,0,1,0.01,-0.36,-0.66,0.03,0,1,-0.03,-0.31,-0.65,0,0.98,-0.52,0.1,3.36,-2.08,1000,1020.92,1000,1005.42,189.65,0,3.75
21178183,-168.74,-3.43,0.16,0.03,0,1,-0.08,-0.36,-0.66,0.03,0,1,-0.03,-0.31,-0.65,0,0.98,-0.52,0.1,3.36,-2.08,1000,1020.92,1000,1005.42,189.23,0,3.79
21179212,-168.74,-3.43,0.16,0.03,0,1,-0.08,-0.27,-0.66,0.03,0,1,-0.03,-0.31,-0.65,0,0.98,-0.52,0.1,3.36,-2.08,1000,1020.92,1000,1005.42,189.23,0,3.79
21180233,-168.74,-3.43,0.16,0.04,0,1,0.01,-0.27,-0.66,0.03,0,1,-0.03,-0.31,-0.65,0,0.98,-0.52,0.1,3.36,-2.08,1000,1020.92,1000,1005.42,189.23,0,3.79
21183703,-168.74,-3.43,0.16,0.04,0,0.99,-0.04,-0.23,-0.66,0.03,0,1,-0.03,-0.31,-0.65,0,0.98,-0.52,0.1,3.36,-2.08,1000,1020.92,1000,1005.42,190.4,0,3.79
21184717,-168.74,-3.43,0.16,0.03,0,1,-0.04,-0.31,-0.6,0.03,0,1,-0.03,-0.31,-0.66,0,0.98,-0.52,0.1,3.36,-2.08,1000,1020.92,1000,1005.42,190.4,0,3.79
21185728,-168.74,-3.43,0.16,0.03,0,1,0.01,-0.27,-0.66,0.03,0,1,-0.03,-0.31,-0.66,0,0.98,-0.52,0.1,3.36,-2.08,1000,1020.92,1000,1005.42,190.4,0,3.79
21186723,-168.74,-3.43,0.16,0.03,0,1,0.05,-0.31,-0.66,0.03,0,1,-0.03,-0.31,-0.66,0,0.98,-0.52,0.1,3.36,-2.08,1000,1020.92,1000,1005.42,190.4,0,3.79
21190217,-168.75,-3.43,0.16,0.04,0,1,-0.08,-0.36,-0.6,0.03,0,1,-0.03,-0.31,-0.66,0,0.98,-0.52,0.1,3.36,-2.08,1000,1020.92,1000,1005.42,184.8,0,3.79
21191465,-168.75,-3.43,0.16,0.03,0,1,-0.04,-0.31,-0.6,0.03,0,1,-0.03,-0.31,-0.66,0,0.98,-0.52,0.1,3.36,-2.08,1000,1020.92,1000,1005.42,184.8,0,3.79
21192466,-168.76,-3.43,0.16,0.03,0,1,-0.04,-0.31,-0.66,0.03,0,1,-0.03,-0.31,-0.66,0,0.98,-0.52,0.1,3.36,-2.08,1000,1020.92,1000,1005.42,184.8,0,3.79
21195948,-168.76,-3.43,0.16,0.03,0,0.99,0.01,-0.36,-0.66,0.03,0,1,-0.03,-0.31,-0.66,0,0.98,-0.52,0.1,3.36,-2.08,1000,1020.92,1000,1005.42,186.5,0,3.79
21196979,-168.76,-3.43,0.16,0.03,0,1,-0.04,-0.4,-0.66,0.03,0,1,-0.03,-0.31,-0.66,0,0.98,-0.52,0.1,3.36,-2.08,1000,1020.92,1000,1005.42,186.5,0,3.79
21198363,-168.77,-3.43,0.16,0.03,0,1,-0.08,-0.27,-0.66,0.03,0,1,-0.03,-0.31,-0.66,0,0.98,-0.52,0.1,3.36,-2.08,1000,1020.92,1000,1005.42,186.5,0,3.79
21201842,-168.77,-3.43,0.16,0.03,0,1,-0.04,-0.31,-0.6,0.03,0,1,-0.03,-0.31,-0.66,0,0.98,-0.52,0.1,3.36,-2.08,1000,1020.92,1000,1005.42,186.5,0,3.79
21202872,-168.77,-3.43,0.16,0.03,0,1,-0.08,-0.27,-0.6,0.03,0,1,-0.03,-0.31,-0.66,0,0.98,-0.52,0.1,3.36,-2.08,1000,1020.92,1000,1005.43,186.5,0,3.79
21203881,-168.77,-3.43,0.16,0.03,0,1,-0.04,-0.31,-0.6,0.03,0,1,-0.03,-0.31,-0.66,0,0.98,-0.52,0.1,3.36,-2.08,1000,1020.92,1000,1005.43,186.5,0,3.79
21207446,-168.78,-3.43,0.16,0.04,0,1,-0.04,-0.31,-0.6,0.03,0,1,-0.03,-0.31,-0.66,0,0.98,-0.52,0.1,3.36,-2.08,1000,1020.92,1000,1005.43,186.47,0,3.83
21208487,-168.78,-3.43,0.16,0.04,0,0.99,-0.04,-0.31,-0.6,0.03,0,1,-0.03,-0.31,-0.66,0,0.98,-0.52,0.1,3.36,-2.08,1000,1020.92,1000,1005.43,186.47,0,3.79
21209498,-168.78,-3.43,0.16,0.04,0,0.99,0.01,-0.27,-0.6,0.03,0,1,-0.03,-0.31,-0.66,0,0.98,-0.52,0.1,3.36,-2.08,1000,1020.92,1000,1005.43,186.47,0,3.79
21210524,-168.78,-3.43,0.16,0.04,0,1,0.01,-0.27,-0.66,0.03,0,1,-0.03,-0.31,-0.66,0,0.98,-0.52,0.1,3.36,-2.08,1000,1020.92,1000,1005.43,186.47,0,3.79
21214214,-168.79,-3.43,0.16,0.04,0,1,-0.04,-0.31,-0.66,0.03,0,1,-0.03,-0.31,-0.66,0,0.98,-0.52,0.1,3.36,-2.08,1000,1020.92,1000,1005.43,184.94,0,3.79
21217698,-168.8,-3.43,0.16,0.03,0,1,-0.04,-0.31,-0.66,0.03,0,1,-0.03,-0.31,-0.66,0,0.98,-0.52,0.1,3.36,-2.08,1000,1020.92,1000,1005.43,184.94,0,3.79
21222721,-168.81,-3.43,0.16,0.03,0,0.99,-0.04,-0.31,-0.66,0.03,0,1,-0.03,-0.31,-0.66,0,0.98,-0.52,0.1,3.36,-2.08,1000,1020.92,1000,1005.43,186.62,0,3.79
21226069,-168.81,-3.43,0.16,0.03,0,1,-0.04,-0.31,-0.66,0.03,0,1,-0.03,-0.31,-0.66,0,0.98,-0.52,0.1,3.36,-2.08,1000,1020.92,1000,1005.43,186.62,0,3.79
21231418,-168.82,-3.43,0.16,0.03,0,0.99,-0.04,-0.4,-0.6,0.03,0,1,-0.03,-0.31,-0.66,0,0.98,-0.52,0.1,3.36,-2.08,1000,1020.92,1000,1005.43,188.35,0,3.79
21232486,-168.82,-3.43,0.16,0.03,0,1,-0.04,-0.4,-0.6,0.03,0,1,-0.03,-0.31,-0.66,0,0.98,-0.52,0.1,3.36,-2.08,1000,1020.92,1000,1005.43,188.35,0,3.79
21247008,-168.82,-3.43,0.16,0.03,0,1,-0.08,-0.27,-0.66,0.03,0,1,-0.03,-0.31,-0.66,0,0.98,-0.52,0.1,3.36,-2.08,1000,1020.92,1000,1005.43,186.79,0,3.79
21250603,-168.84,-3.43,0.16,0.04,0,1,-0.04,-0.31,-0.6,0.03,0,1,-0.03,-0.31,-0.66,0,0.98,-0.52,0.1,3.36,-2.08,1000,1020.92,1000,1005.43,187.36,0,3.8
21251654,-168.85,-3.43,0.16,0.04,0,1,-0.04,-0.31,-0.66,0.03,0,1,-0.03,-0.31,-0.66,0,0.98,-0.52,0.1,3.36,-2.08,1000,1020.92,1000,1005.43,187.36,0,3.79
21252652,-168.85,-3.43,0.16,0.04,0,0.99,-0.04,-0.4,-0.66,0.03,0,1,-0.03,-0.31,-0.66,0,0.98,-0.52,0.1,3.36,-2.08,1000,1020.92,1000,1005.43,187.36,0,3.79
21253690,-168.85,-3.43,0.16,0.04,0,1,-0.08,-0.36,-0.72,0.03,0,1,-0.03,-0.31,-0.66,0,0.98,-0.52,0.1,3.36,-2.08,1000,1020.92,1000,1005.43,187.36,0,3.79
21257212,-168.85,-3.43,0.16,0.03,0,1,0.01,-0.36,-0.66,0.03,0,1,-0.03,-0.31,-0.65,0,0.98,-0.52,0.1,3.36,-2.08,1000,1020.92,1000,1005.43,189.94,0,3.79
21258249,-168.85,-3.43,0.16,0.03,0,1,0.09,-0.27,-0.66,0.03,0,1,-0.03,-0.31,-0.65,0,0.98,-0.52,0.1,3.36,-2.08,1000,1020.92,1000,1005.43,189.94,0,3.79
21259518,-168.85,-3.44,0.16,0.03,0,1,0.01,-0.27,-0.66,0.03,0,1,-0.03,-0.31,-0.65,0,0.98,-0.52,0.1,3.36,-2.08,1000,1020.92,1000,1005.43,189.94,0,3.79
21263048,-168.86,-3.44,0.16,0.04,0,0.99,-0.04,-0.31,-0.66,0.03,0,1,-0.04,-0.31,-0.65,0,0.98,-0.52,0.1,3.36,-2.08,1000,1020.92,1000,1005.43,188.72,0,3.79
21264078,-168.86,-3.44,0.16,0.03,0,1,0.01,-0.27,-0.66,0.03,0,1,-0.04,-0.31,-0.65,0,0.98,-0.52,0.1,3.36,-2.08,1000,1020.92,1000,1005.43,188.72,0,3.9
21265457,-168.86,-3.44,0.16,0.04,0,1,-0.04,-0.31,-0.6,0.03,0,1,-0.04,-0.31,-0.65,0,0.98,-0.52,0.1,3.36,-2.08,1000,1020.92,1000,1005.43,188.72,0,3.77
21268921,-168.87,-3.44,0.16,0.03,0,1,0.01,-0.27,-0.6,0.03,0,1,-0.04,-0.31,-0.65,0,0.98,-0.52,0.1,3.36,-2.08,1000,1020.92,1000,1005.43,187.69,0,3.79
21269930,-168.87,-3.44,0.16,0.03,0,1,0.01,-0.27,-0.6,0.03,0,1,-0.04,-0.31,-0.65,0,0.98,-0.52,0.1,3.36,-2.08,1000,1020.92,1000,1005.43,187.69,0,3.79
21270921,-168.87,-3.44,0.16,0.03,0,0.99,0.01,-0.27,-0.66,0.03,0,1,-0.04,-0.31,-0.65,0,0.98,-0.52,0.1,3.36,-2.08,1000,1020.92,1000,1005.43,187.69,0,3.79
21274421,-168.87,-3.44,0.16,0.03,0,1,-0.04,-0.31,-0.6,0.03,0,1,-0.04,-0.31,-0.65,0,0.98,-0.52,0.1,3.36,-2.08,1000,1020.92,1000,1005.43,187.82,0,3.79
21275459,-168.87,-3.44,0.16,0.03,0,1,-0.08,-0.36,-0.66,0.03,0,1,-0.04,-0.31,-0.65,0,0.98,-0.52,0.1,3.36,-2.08,1000,1020.92,1000,1005.43,187.82,0,3.79
21276469,-168.88,-3.44,0.16,0.04,0,0.99,-0.04,-0.31,-0.66,0.03,0,1,-0.04,-0.31,-0.65,0,0.98,-0.52,0.1,3.36,-2.08,1000,1020.92,1000,1005.43,187.82,0,3.77
21277467,-168.88,-3.44,0.16,0.04,0,0.99,0.05,-0.23,-0.66,0.03,0,1,-0.04,-0.31,-0.66,0,0.98,-0.52,0.1,3.36,-2.08,1000,1020.92,1000,1005.43,187.82,0,3.79
21280947,-168.88,-3.44,0.16,0.04,0,0.99,0.01,-0.27,-0.66,0.03,0,1,-0.04,-0.31,-0.66,0,0.98,-0.52,0.1,3.36,-2.08,1000,1020.92,1000,1005.43,184.98,0,3.79
21282218,-168.89,-3.44,0.16,0.03,0,1,-0.04,-0.31,-0.6,0.03,0,1,-0.04,-0.31,-0.66,0,0.98,-0.52,0.1,3.36,-2.08,1000,1020.92,1000,1005.43,184.98,0,3.74
21283223,-168.89,-3.44,0.16,0.03,0,1,-0.04,-0.31,-0.66,0.03,0,1,-0.04,-0.31,-0.66,0,0.98,-0.52,0.1,3.36,-2.08,1000,1020.92,1000,1005.43,184.98,0,3.79
21286781,-168.89,-3.44,0.16,0.04,0,1,0.05,-0.31,-0.66,0.03,0,1,-0.04,-0.31,-0.66,0,0.98,-0.52,0.1,3.36,-2.08,1000,1020.92,1000,1005.43,188.5,0,3.8
21287820,-168.89,-3.44,0.16,0.03,0,1,0.05,-0.31,-0.6,0.03,0,1,-0.04,-0.31,-0.66,0,0.98,-0.52,0.1,3.36,-2.08,1000,1020.92,1000,1005.43,188.5,0,3.79
21289134,-168.89,-3.44,0.16,0.03,0,1,-0.04,-0.31,-0.6,0.03,0,1,-0.03,-0.31,-0.66,0,0.98,-0.52,0.1,3.36,-2.08,1000,1020.92,1000,1005.43,188.5,0,3.79
21292628,-168.9,-3.44,0.16,0.03,0,0.99,-0.04,-0.31,-0.6,0.03,0,1,-0.03,-0.31,-0.66,0,0.98,-0.52,0.1,3.36,-2.08,1000,1020.93,1000,1005.43,185.13,0,3.79
21293636,-168.9,-3.44,0.16,0.03,0,1,0.01,-0.27,-0.66,0.03,0,1,-0.03,-0.31,-0.66,0,0.98,-0.52,0.1,3.36,-2.08,1000,1020.93,1000,1005.43,185.13,0,3.72
21294653,-168.91,-3.44,0.16,0.03,0,1,0.01,-0.27,-0.66,0.03,0,1,-0.03,-0.31,-0.66,0,0.98,-0.52,0.1,3.36,-2.08,1000,1020.93,1000,1005.43,185.13,0,3.74
21298335,-168.91,-3.44,0.16,0.03,0,1,0.01,-0.36,-0.6,0.03,0,1,-0.03,-0.31,-0.66,0,0.98,-0.52,0.1,3.36,-2.08,1000,1020.93,1000,1005.43,185.07,0,3.79
21299381,-168.91,-3.44,0.16,0.03,0,1,-0.04,-0.31,-0.6,0.03,0,1,-0.03,-0.31,-0.66,0,0.98,-0.52,0.1,3.36,-2.08,1000,1020.93,1000,1005.43,185.07,0,3.79
21300410,-168.92,-3.44,0.16,0.03,0,1,0.05,-0.31,-0.66,0.03,0,1,-0.03,-0.31,-0.66,0,0.98,-0.52,0.1,3.36,-2.08,1000,1020.93,1000,1005.43,185.07,0,3.79
21301416,-168.92,-3.44,0.16,0.03,0,0.99,0.01,-0.27,-0.66,0.03,0,1,-0.03,-0.31,-0.66,0,0.98,-0.52,0.1,3.36,-2.08,1000,1020.93,1000,1005.43,185.07,0,3.79
21304899,-168.92,-3.44,0.16,0.03,0,1,-0.04,-0.31,-0.6,0.03,0,1,-0.02,-0.31,-0.66,0,0.98,-0.52,0.1,3.36,-2.08,1000,1020.93,1000,1005.43,187.01,0,3.75
21305923,-168.92,-3.44,0.16,0.03,0,1,-0.04,-0.31,-0.6,0.03,0,1,-0.02,-0.31,-0.66,0,0.98,-0.52,0.1,3.36,-2.08,1000,1020.93,1000,1005.43,187.01,0,3.79
21306927,-168.93,-3.44,0.16,0.04,0,1,0.01,-0.27,-0.66,0.03,0,1,-0.02,-0.31,-0.65,0,0.98,-0.52,0.1,3.36,-2.08,1000,1020.93,1000,1005.43,187.01,0,3.79
21310450,-168.93,-3.44,0.16,0.03,0,1,-0.08,-0.36,-0.66,0.03,0,1,-0.02,-0.31,-0.65,0,0.98,-0.52,0.1,3.36,-2.08,1000,1020.93,1000,1005.43,185.07,0,3.79
21311479,-168.93,-3.44,0.16,0.03,0,0.99,0.01,-0.36,-0.72,0.03,0,1,-0.02,-0.31,-0.65,0,0.98,-0.52,0.1,3.36,-2.08,1000,1020.93,1000,1005.43,185.07,0,3.79
21312823,-168.94,-3.44,0.16,0.03,0,1,-0.04,-0.31,-0.66,0.03,0,1,-0.02,-0.31,-0.65,0,0.98,-0.52,0.1,3.36,-2.08,1000,1020.93,1000,1005.42,185.07,0,3.79
21314115,-168.94,-3.44,0.16,0.03,0,1,-0.08,-0.27,-0.66,0.03,0,1,-0.02,-0.31,-0.65,0,0.98,-0.52,0.1,3.36,-2.08,1000,1020.93,1000,1005.42,185.07,0,3.79
21319324,-168.95,-3.44,0.16,0.03,0,0.99,0.01,-0.36,-0.6,0.03,0,1,-0.01,-0.31,-0.65,0,0.98,-0.52,0.1,3.36,-2.08,1000,1020.93,1000,1005.42,186.24,0,3.79
21322567,-168.95,-3.44,0.16,0.03,0,0.99,0.01,-0.36,-0.72,0.03,0,1,-0.01,-0.31,-0.65,0,0.98,-0.52,0.1,3.36,-2.08,1000,1020.93,1000,1005.42,186.24,0,3.79
21327643,-168.96,-3.44,0.16,0.03,0,1,-0.08,-0.27,-0.72,0.03,0,1,-0.01,-0.31,-0.66,0,0.98,-0.52,0.1,3.36,-2.08,1000,1020.93,1000,1005.42,184.72,0,3.79
21330956,-168.97,-3.44,0.16,0.04,0,1,-0.04,-0.31,-0.66,0.03,0,1,-0.01,-0.31,-0.66,0,0.98,-0.52,0.1,3.36,-2.08,1000,1020.93,1000,1005.42,184.72,0,3.79
21334516,-168.97,-3.44,0.16,0.03,0,1,0.01,-0.36,-0.66,0.03,0,1,-0.01,-0.31,-0.66,0,0.98,-0.52,0.1,3.36,-2.08,1000,1020.93,1000,1005.42,188,0,3.79
21335551,-168.97,-3.44,0.16,0.03,0,0.99,-0.04,-0.4,-0.66,0.03,0,1,-0.01,-0.31,-0.66,0,0.98,-0.52,0.1,3.36,-2.08,1000,1020.93,1000,1005.42,188,0,3.79
21347658,-168.98,-3.44,0.16,0.03,0,0.99,0.01,-0.36,-0.66,0.03,0,1,-0.01,-0.31,-0.66,0,0.98,-0.52,0.1,3.36,-2.08,1000,1020.93,1000,1005.42,188,0,3.79
21351255,-169,-3.44,0.16,0.04,0,1,-0.04,-0.31,-0.66,0.03,0,1,-0.01,-0.31,-0.66,0,0.98,-0.52,0.1,3.36,-2.08,1000,1020.93,1000,1005.42,186.82,0,3.8
21352290,-169,-3.44,0.16,0.03,0,1,0.01,-0.36,-0.54,0.03,0,1,-0.01,-0.31,-0.66,0,0.98,-0.52,0.1,3.36,-2.08,1000,1020.93,1000,1005.42,186.82,0,3.79
21353323,-169,-3.44,0.16,0.03,0,1,-0.04,-0.4,-0.6,0.03,0,1,-0.01,-0.31,-0.66,0,0.98,-0.52,0.1,3.36,-2.08,1000,1020.93,1000,1005.42,186.82,0,3.79
21356818,-169.01,-3.44,0.16,0.04,0,1,-0.08,-0.27,-0.66,0.03,0,1,-0.01,-0.31,-0.66,0,0.98,-0.52,0.1,3.36,-2.08,1000,1020.94,1000,1005.42,182.3,0,3.79
21357845,-169.01,-3.44,0.16,0.04,0,1,-0.04,-0.31,-0.66,0.03,0,1,-0.01,-0.31,-0.66,0,0.98,-0.52,0.1,3.36,-2.08,1000,1020.94,1000,1005.42,182.3,0,3.79
21359174,-169.01,-3.44,0.16,0.03,0,0.99,-0.08,-0.36,-0.66,0.03,0,1,-0.01,-0.31,-0.66,0,0.98,-0.52,0.1,3.36,-2.08,1000,1020.94,1000,1005.42,182.3,0,3.79
21362665,-169.02,-3.44,0.16,0.03,0,1,-0.08,-0.27,-0.72,0.03,0,1,-0.01,-0.31,-0.66,0,0.98,-0.52,0.1,3.36,-2.08,1000,1020.94,1000,1005.42,189.48,0,3.79
21363707,-169.02,-3.44,0.16,0.03,0,1,-0.04,-0.23,-0.66,0.03,0,1,-0.01,-0.31,-0.66,0,0.98,-0.52,0.1,3.36,-2.08,1000,1020.94,1000,1005.42,189.48,0,3.79
21365114,-169.02,-3.44,0.16,0.04,0,1,-0.04,-0.31,-0.6,0.03,0,1,-0.01,-0.31,-0.66,0,0.98,-0.52,0.1,3.36,-2.08,1000,1020.94,1000,1005.42,189.48,0,3.79
21368619,-169.03,-3.44,0.16,0.03,0,1,-0.04,-0.31,-0.66,0.03,0,1,-0.01,-0.31,-0.66,0,0.98,-0.52,0.1,3.36,-2.08,1000,1020.94,1000,1005.42,186.32,0,3.79
21369641,-169.03,-3.44,0.16,0.03,0,1,-0.04,-0.31,-0.66,0.03,0,1,-0.01,-0.31,-0.66,0,0.98,-0.52,0.1,3.36,-2.08,1000,1020.94,1000,1005.42,186.32,0,3.79
21370993,-169.03,-3.44,0.16,0.03,0,0.99,-0.04,-0.31,-0.66,0.03,0,1,-0.01,-0.31,-0.66,0,0.98,-0.52,0.1,3.36,-2.08,1000,1020.93,1000,1005.42,186.32,0,3.79
21374552,-169.03,-3.44,0.16,0.04,0,0.99,-0.08,-0.27,-0.72,0.03,0,1,-0.01,-0.31,-0.66,0,0.98,-0.52,0.1,3.36,-2.08,1000,1020.93,1000,1005.42,187.01,0,3.79
21375602,-169.04,-3.44,0.16,0.04,0,0.99,-0.04,-0.31,-0.66,0.03,0,1,-0.01,-0.31,-0.66,0,0.98,-0.52,0.1,3.36,-2.08,1000,1020.93,1000,1005.42,187.01,0,3.79
21376933,-169.04,-3.44,0.16,0.03,0,0.99,-0.08,-0.36,-0.66,0.03,0,1,-0.01,-0.31,-0.66,0,0.98,-0.52,0.1,3.36,-2.08,1000,1020.93,1000,1005.42,187.01,0,3.79
21380448,-169.04,-3.44,0.16,0.03,0,1,-0.08,-0.36,-0.72,0.03,0,1,-0.02,-0.31,-0.66,0,0.98,-0.52,0.1,3.36,-2.08,1000,1020.93,1000,1005.43,185.34,0,3.79
21381483,-169.05,-3.44,0.16,0.03,0,1,-0.04,-0.31,-0.66,0.03,0,1,-0.02,-0.31,-0.66,0,0.98,-0.52,0.1,3.36,-2.08,1000,1020.93,1000,1005.43,185.34,0,3.79
21382856,-169.05,-3.44,0.16,0.04,0,0.99,-0.08,-0.36,-0.6,0.03,0,1,-0.02,-0.31,-0.66,0,0.98,-0.52,0.1,3.36,-2.08,1000,1020.93,1000,1005.43,185.34,0,3.79
21383883,-169.05,-3.44,0.16,0.04,0,1,-0.08,-0.36,-0.6,0.03,0,1,-0.02,-0.31,-0.66,0,0.98,-0.52,0.1,3.36,-2.08,1000,1020.93,1000,1005.43,185.34,0,3.79
21387391,-169.06,-3.44,0.16,0.03,0,1,-0.08,-0.27,-0.66,0.03,0,1,-0.02,-0.31,-0.66,0,0.98,-0.52,0.1,3.36,-2.08,1000,1020.93,1000,1005.43,186.32,0,3.77
21388453,-169.06,-3.44,0.16,0.03,0,1,-0.04,-0.31,-0.66,0.03,0,1,-0.02,-0.31,-0.66,0,0.98,-0.52,0.1,3.36,-2.08,1000,1020.93,1000,1005.43,186.32,0,3.79
21389746,-169.06,-3.44,0.16,0.03,0,0.99,-0.04,-0.31,-0.72,0.03,0,1,-0.02,-0.31,-0.66,0,0.98,-0.52,0.1,3.36,-2.08,1000,1020.93,1000,1005.43,186.32,0,3.79
21393249,-169.06,-3.44,0.16,0.03,0,1,-0.04,-0.31,-0.6,0.03,0,1,-0.02,-0.31,-0.66,0,0.98,-0.52,0.1,3.36,-2.08,1000,1020.93,1000,1005.43,187.43,0,3.79
21394298,-169.07,-3.44,0.16,0.03,0,1,-0.08,-0.36,-0.6,0.03,0,1,-0.02,-0.31,-0.66,0,0.98,-0.52,0.1,3.36,-2.08,1000,1020.93,1000,1005.43,187.43,0,3.79
21395678,-169.07,-3.44,0.16,0.03,0,0.99,-0.04,-0.31,-0.66,0.03,0,1,-0.02,-0.31,-0.66,0,0.98,-0.52,0.1,3.36,-2.08,1000,1020.93,1000,1005.43,187.43,0,3.72
21399181,-169.07,-3.44,0.16,0.03,0,1,-0.04,-0.31,-0.72,0.03,0,1,-0.02,-0.31,-0.66,0,0.98,-0.52,0.1,3.36,-2.08,1000,1020.93,1000,1005.43,187.43,0,3.79
21400236,-169.07,-3.44,0.16,0.03,0,1,0.01,-0.27,-0.6,0.03,0,1,-0.02,-0.31,-0.66,0,0.98,-0.52,0.1,3.36,-2.08,1000,1020.93,1000,1005.43,187.43,0,3.79
21401589,-169.08,-3.44,0.16,0.03,0,1,-0.04,-0.31,-0.72,0.03,0,1,-0.03,-0.31,-0.66,0,0.98,-0.52,0.1,3.36,-2.08,1000,1020.93,1000,1005.43,187.43,0,3.79
21405118,-169.08,-3.44,0.16,0.04,0,1,-0.08,-0.36,-0.6,0.03,0,1,-0.03,-0.31,-0.66,0,0.98,-0.52,0.1,3.36,-2.08,1000,1020.93,1000,1005.43,186.59,0,3.79
21406149,-169.08,-3.44,0.16,0.04,0,1,0.01,-0.36,-0.66,0.03,0,1,-0.03,-0.31,-0.66,0,0.98,-0.52,0.1,3.36,-2.08,1000,1020.93,1000,1005.43,186.59,0,3.79
21407518,-169.08,-3.44,0.16,0.03,0,1,0.01,-0.27,-0.72,0.03,0,1,-0.03,-0.31,-0.66,0,0.98,-0.52,0.1,3.36,-2.08,1000,1020.93,1000,1005.43,186.59,0,3.79
21411001,-169.09,-3.44,0.16,0.03,0,0.99,-0.04,-0.31,-0.6,0.03,0,1,-0.03,-0.31,-0.66,0,0.98,-0.52,0.1,3.36,-2.08,1000,1020.93,1000,1005.43,186.74,0,3.79
21412036,-169.09,-3.44,0.16,0.03,0,1,-0.04,-0.31,-0.6,0.03,0,1,-0.03,-0.31,-0.66,0,0.98,-0.52,0.1,3.36,-2.08,1000,1020.93,1000,1005.43,186.74,0,3.79
21413057,-169.09,-3.44,0.16,0.03,0,1,0.01,-0.36,-0.6,0.03,0,1,-0.03,-0.31,-0.66,0,0.98,-0.52,0.1,3.36,-2.08,1000,1020.93,1000,1005.43,186.74,0,3.79
21416720,-169.1,-3.44,0.16,0.03,0,1,-0.04,-0.31,-0.66,0.03,0,1,-0.03,-0.31,-0.66,0,0.98,-0.52,0.1,3.36,-2.08,1000,1020.93,1000,1005.43,186.53,0,3.8
21420181,-169.1,-3.44,0.16,0.03,0,1,-0.08,-0.27,-0.66,0.03,0,1,-0.03,-0.31,-0.66,0,0.98,-0.52,0.1,3.36,-2.08,1000,1020.93,1000,1005.43,186.53,0,3.79
21425197,-169.11,-3.44,0.16,0.03,0,0.99,0.01,-0.27,-0.66,0.03,0,1,-0.03,-0.31,-0.66,0,0.98,-0.52,0.1,3.36,-2.08,1000,1020.93,1000,1005.43,186.17,0,3.79
21428514,-169.12,-3.44,0.16,0.04,0,0.99,0.01,-0.36,-0.66,0.03,0,1,-0.03,-0.31,-0.66,0,0.98,-0.52,0.1,3.36,-2.08,1000,1020.93,1000,1005.43,186.17,0,3.79
21433619,-169.12,-3.44,0.16,0.04,0,0.99,0.01,-0.27,-0.6,0.03,0,1,-0.03,-0.31,-0.66,0,0.98,-0.52,0.1,3.36,-2.08,1000,1020.93,1000,1005.43,190.15,0,3.77
21434746,-169.12,-3.44,0.16,0.03,0,1,-0.04,-0.31,-0.66,0.03,0,1,-0.03,-0.31,-0.66,0,0.98,-0.52,0.1,3.36,-2.08,1000,1020.93,1000,1005.43,190.15,0,3.79
21449251,-169.13,-3.44,0.16,0.03,0,1,-0.04,-0.31,-0.66,0.03,0,1,-0.03,-0.31,-0.66,0,0.98,-0.52,0.1,3.36,-2.08,1000,1020.93,1000,1005.43,188.33,0,3.77
21452801,-169.14,-3.44,0.16,0.04,0,1,0.01,-0.36,-0.66,0.03,0,1,-0.03,-0.31,-0.66,0,0.98,-0.52,0.1,3.36,-2.08,1000,1020.93,1000,1005.43,188.33,0,3.79
21453877,-169.14,-3.44,0.16,0.03,0,1,-0.08,-0.36,-0.6,0.03,0,1,-0.03,-0.31,-0.66,0,0.98,-0.52,0.1,3.36,-2.08,1000,1020.93,1000,1005.43,188.33,0,3.78
21454893,-169.15,-3.44,0.16,0.04,0,1,-0.12,-0.31,-0.6,0.03,0,1,-0.03,-0.31,-0.66,0,0.98,-0.52,0.1,3.36,-2.08,1000,1020.93,1000,1005.43,188.33,0,3.79
21455871,-169.15,-3.44,0.16,0.04,0,1,-0.04,-0.23,-0.66,0.03,0,1,-0.03,-0.31,-0.66,0,0.98,-0.52,0.1,3.36,-2.08,1000,1020.93,1000,1005.43,188.33,0,3.79
21459415,-169.15,-3.44,0.16,0.03,0,1,-0.08,-0.36,-0.6,0.03,0,1,-0.03,-0.31,-0.66,0,0.98,-0.52,0.1,3.36,-2.08,1000,1020.93,1000,1005.43,187.88,0,3.8
21460474,-169.15,-3.44,0.16,0.03,0,1,-0.04,-0.31,-0.66,0.03,0,1,-0.03,-0.31,-0.66,0,0.98,-0.52,0.1,3.36,-2.08,1000,1020.93,1000,1005.43,187.88,0,3.79
21464320,-169.16,-3.44,0.16,0.03,0,1,-0.04,-0.23,-0.66,0.03,0,1,-0.03,-0.31,-0.66,0,0.98,-0.52,0.1,3.36,-2.08,1000,1020.93,1000,1005.43,187.88,0,3.79
21465560,-169.16,-3.44,0.16,0.03,0,0.99,-0.04,-0.31,-0.66,0.03,0,1,-0.03,-0.31,-0.66,0,0.98,-0.52,0.1,3.36,-2.08,1000,1020.93,1000,1005.43,187.88,0,3.77
21467018,-169.16,-3.44,0.16,0.04,0,1,-0.04,-0.31,-0.66,0.03,0,1,-0.03,-0.31,-0.66,0,0.98,-0.52,0.1,3.36,-2.08,1000,1020.93,1000,1005.43,187.88,0,3.79
21470565,-169.16,-3.44,0.16,0.03,0,0.99,-0.04,-0.31,-0.66,0.03,0,1,-0.03,-0.31,-0.66,0,0.98,-0.52,0.1,3.36,-2.08,1000,1020.93,1000,1005.43,190.17,0,3.79
21471639,-169.16,-3.44,0.16,0.03,0,1,-0.04,-0.31,-0.6,0.03,0,1,-0.03,-0.31,-0.66,0,0.98,-0.52,0.1,3.36,-2.08,1000,1020.93,1000,1005.43,190.17,0,3.79
21472656,-169.16,-3.44,0.16,0.03,0,1,0.01,-0.27,-0.6,0.03,0,1,-0.03,-0.31,-0.66,0,0.98,-0.52,0.1,3.36,-2.08,1000,1020.93,1000,1005.43,190.17,0,3.79
21473676,-169.17,-3.44,0.16,0.03,0,1,0.01,-0.27,-0.6,0.03,0,1,-0.03,-0.31,-0.66,0,0.98,-0.52,0.1,3.36,-2.08,1000,1020.93,1000,1005.43,190.17,0,3.79
21477202,-169.17,-3.44,0.16,0.03,0,1,0.01,-0.36,-0.66,0.03,0,1,-0.03,-0.31,-0.66,0,0.98,-0.52,0.1,3.36,-2.08,1000,1020.93,1000,1005.43,186.23,0,3.79
21478236,-169.17,-3.44,0.16,0.03,0,1,-0.08,-0.36,-0.66,0.03,0,1,-0.04,-0.31,-0.66,0,0.98,-0.52,0.1,3.36,-2.08,1000,1020.93,1000,1005.43,186.23,0,3.79
21479528,-169.17,-3.44,0.16,0.04,0,1,-0.04,-0.31,-0.66,0.03,0,1,-0.04,-0.31,-0.66,0,0.98,-0.52,0.1,3.36,-2.08,1000,1020.93,1000,1005.43,186.23,0,3.79
21483032,-169.18,-3.44,0.16,0.03,0,1,0.01,-0.36,-0.72,0.03,0,1,-0.04,-0.31,-0.66,0,0.98,-0.52,0.1,3.36,-2.08,1000,1020.93,1000,1005.43,186.4,0,3.79
21484067,-169.18,-3.44,0.16,0.03,0,1,-0.04,-0.4,-0.6,0.03,0,1,-0.04,-0.31,-0.66,0,0.98,-0.52,0.1,3.36,-2.08,1000,1020.93,1000,1005.43,186.4,0,3.79
21485096,-169.18,-3.44,0.16,0.03,0,1,-0.04,-0.31,-0.6,0.03,0,1,-0.04,-0.31,-0.66,0,0.98,-0.52,0.1,3.36,-2.08,1000,1020.93,1000,1005.43,186.4,0,3.79
21488603,-169.19,-3.44,0.16,0.03,0,1,0.01,-0.36,-0.6,0.03,0,1,-0.04,-0.31,-0.66,0,0.98,-0.52,0.1,3.36,-2.08,1000,1020.93,1000,1005.43,189.22,0,3.79
21489647,-169.19,-3.44,0.16,0.03,0,1,-0.04,-0.31,-0.66,0.03,0,1,-0.04,-0.31,-0.66,0,0.98,-0.52,0.1,3.36,-2.08,1000,1020.93,1000,1005.43,189.22,0,3.79
21490656,-169.19,-3.44,0.16,0.03,0,1,-0.04,-0.31,-0.6,0.03,0,1,-0.04,-0.31,-0.66,0,0.98,-0.52,0.1,3.36,-2.08,1000,1020.93,1000,1005.43,189.22,0,3.82
21491678,-169.19,-3.44,0.16,0.03,0,1,-0.08,-0.27,-0.6,0.03,0,1,-0.04,-0.31,-0.66,0,0.98,-0.52,0.1,3.36,-2.08,1000,1020.93,1000,1005.43,189.22,0,3.79
21495519,-169.2,-3.44,0.16,0.03,0,0.99,0.01,-0.36,-0.6,0.03,0,1,-0.04,-0.31,-0.66,0,0.98,-0.52,0.1,3.36,-2.08,1000,1020.93,1000,1005.43,184.26,0,3.79
21496791,-169.2,-3.44,0.16,0.04,0,1,0.05,-0.31,-0.6,0.03,0,1,-0.04,-0.31,-0.66,0,0.98,-0.52,0.1,3.36,-2.08,1000,1020.93,1000,1005.43,184.26,0,3.81
21497803,-169.2,-3.44,0.16,0.04,0,1,-0.04,-0.31,-0.66,0.03,0,1,-0.04,-0.31,-0.66,0,0.98,-0.52,0.1,3.36,-2.08,1000,1020.93,1000,1005.43,184.26,0,3.79
21501256,-169.21,-3.44,0.16,0.03,0,0.99,-0.04,-0.31,-0.6,0.03,0,1,-0.04,-0.31,-0.66,0,0.98,-0.52,0.1,3.36,-2.08,1000,1020.94,1000,1005.43,188.91,0,3.82
21502382,-169.21,-3.44,0.16,0.03,0,0.99,-0.04,-0.31,-0.6,0.03,0,1,-0.04,-0.31,-0.66,0,0.98,-0.52,0.1,3.36,-2.08,1000,1020.94,1000,1005.43,188.91,0,3.79
21503397,-169.21,-3.44,0.16,0.03,0,0.99,-0.04,-0.31,-0.6,0.03,0,1,-0.04,-0.31,-0.65,0,0.98,-0.52,0.1,3.36,-2.08,1000,1020.94,1000,1005.43,188.91,0,3.79
21506803,-169.21,-3.44,0.16,0.04,0,0.99,-0.04,-0.31,-0.66,0.03,0,1,-0.04,-0.31,-0.65,0,0.98,-0.52,0.1,3.36,-2.08,1000,1020.94,1000,1005.43,187.96,0,3.79
21507923,-169.21,-3.44,0.16,0.03,0,0.99,-0.04,-0.31,-0.66,0.03,0,1,-0.04,-0.31,-0.65,0,0.98,-0.52,0.1,3.36,-2.08,1000,1020.94,1000,1005.43,187.96,0,3.79
21509170,-169.21,-3.44,0.16,0.04,0,1,0.01,-0.36,-0.6,0.03,0,1,-0.04,-0.31,-0.65,0,0.98,-0.52,0.1,3.36,-2.08,1000,1020.94,1000,1005.43,187.96,0,3.79
21512584,-169.22,-3.44,0.16,0.03,0,0.99,-0.04,-0.31,-0.6,0.03,0,1,-0.04,-0.31,-0.65,0,0.98,-0.52,0.1,3.36,-2.08,1000,1020.94,1000,1005.43,189.37,0,3.79
21513714,-169.22,-3.44,0.16,0.04,0,0.99,-0.08,-0.36,-0.66,0.03,0,1,-0.04,-0.31,-0.64,0,0.98,-0.52,0.1,3.36,-2.08,1000,1020.94,1000,1005.43,189.37,0,3.79
21515091,-169.22,-3.44,0.16,0.04,0,0.99,-0.08,-0.27,-0.66,0.03,0,1,-0.04,-0.31,-0.64,0,0.98,-0.52,0.1,3.36,-2.08,1000,1020.94,1000,1005.43,189.37,0,3.79
21518699,-169.22,-3.44,0.16,0.03,0,1,0.01,-0.36,-0.6,0.03,0,1,-0.04,-0.31,-0.64,0,0.98,-0.52,0.1,3.36,-2.08,1000,1020.94,1000,1005.43,187.67,0,3.79
21522150,-169.23,-3.44,0.16,0.03,0,1,0.01,-0.36,-0.6,0.03,0,1,-0.04,-0.31,-0.64,0,0.98,-0.52,0.1,3.36,-2.08,1000,1020.94,1000,1005.43,187.67,0,3.79
21527213,-169.24,-3.44,0.16,0.03,0,1,-0.04,-0.31,-0.66,0.03,0,1,-0.04,-0.31,-0.64,0,0.98,-0.52,0.1,3.36,-2.08,1000,1020.94,1000,1005.43,186.47,0,3.81
21530543,-169.24,-3.44,0.16,0.04,0,1,-0.04,-0.31,-0.6,0.03,0,1,-0.04,-0.31,-0.63,0,0.98,-0.52,0.1,3.36,-2.08,1000,1020.94,1000,1005.43,186.47,0,3.79
21535603,-169.25,-3.44,0.16,0.03,0,0.99,-0.04,-0.31,-0.66,0.03,0,1,-0.04,-0.31,-0.63,0,0.98,-0.52,0.1,3.36,-2.08,1000,1020.94,1000,1005.43,185.27,0,3.79
21536748,-169.25,-3.44,0.16,0.03,0,1,0.05,-0.31,-0.66,0.03,0,1,-0.04,-0.31,-0.63,0,0.98,-0.52,0.1,3.36,-2.08,1000,1020.94,1000,1005.43,185.27,0,3.79
21551272,-169.26,-3.44,0.16,0.03,0,1,-0.04,-0.31,-0.66,0.03,0,1,-0.04,-0.31,-0.63,0,0.98,-0.52,0.1,3.36,-2.08,1000,1020.94,1000,1005.43,186.55,0,3.79
21554905,-169.28,-3.44,0.16,0.03,0,1,0.01,-0.36,-0.66,0.03,0,1,-0.04,-0.31,-0.63,0,0.98,-0.52,0.1,3.36,-2.08,1000,1020.94,1000,1005.43,186.48,0,3.8
21556483,-169.28,-3.44,0.16,0.03,0,1,0.01,-0.36,-0.66,0.03,0,1,-0.04,-0.31,-0.63,0,0.98,-0.52,0.1,3.36,-2.08,1000,1020.94,1000,1005.43,186.48,0,3.79
21557684,-169.28,-3.44,0.16,0.03,0,1,0.01,-0.36,-0.66,0.03,0,1,-0.04,-0.31,-0.62,0,0.98,-0.52,0.1,3.36,-2.08,1000,1020.94,1000,1005.43,186.48,0,3.79
21561185,-169.29,-3.44,0.16,0.03,0,1,0.01,-0.36,-0.66,0.03,0,1,-0.04,-0.31,-0.62,0,0.98,-0.52,0.1,3.36,-2.08,1000,1020.94,1000,1005.43,185.63,0,3.79
21562452,-169.29,-3.44,0.16,0.04,0,1,0.01,-0.27,-0.66,0.03,0,1,-0.04,-0.31,-0.62,0,0.98,-0.52,0.1,3.36,-2.08,1000,1020.94,1000,1005.43,185.63,0,3.79
21563478,-169.29,-3.44,0.16,0.04,0,1,0.01,-0.36,-0.6,0.03,0,1,-0.04,-0.31,-0.62,0,0.98,-0.52,0.1,3.36,-2.08,1000,1020.94,1000,1005.43,185.63,0,3.79
21566937,-169.3,-3.44,0.16,0.03,0,1,-0.04,-0.4,-0.72,0.03,0,1,-0.04,-0.31,-0.63,0,0.98,-0.52,0.1,3.36,-2.08,1000,1020.94,1000,1005.43,183.91,0,3.79
21568030,-169.3,-3.44,0.16,0.03,0,1,-0.04,-0.31,-0.72,0.03,0,1,-0.03,-0.31,-0.63,0,0.98,-0.52,0.1,3.36,-2.08,1000,1020.94,1000,1005.43,183.91,0,3.79
21569352,-169.3,-3.44,0.16,0.03,0,1,0.01,-0.36,-0.72,0.03,0,1,-0.03,-0.31,-0.63,0,0.98,-0.52,0.1,3.36,-2.08,1000,1020.94,1000,1005.43,183.91,0,3.67
21572827,-169.31,-3.44,0.16,0.04,0,1,-0.04,-0.31,-0.66,0.03,0,1,-0.03,-0.31,-0.63,0,0.98,-0.52,0.1,3.36,-2.08,1000,1020.94,1000,1005.43,188.19,0,3.79
21573917,-169.31,-3.44,0.16,0.03,0,1,-0.04,-0.31,-0.66,0.03,0,1,-0.03,-0.31,-0.63,0,0.98,-0.52,0.1,3.36,-2.08,1000,1020.94,1000,1005.43,188.19,0,3.79
21575280,-169.31,-3.44,0.16,0.03,0,1,0.01,-0.36,-0.66,0.03,0,1,-0.03,-0.31,-0.63,0,0.98,-0.52,0.1,3.36,-2.08,1000,1020.94,1000,1005.43,188.19,0,3.79
21578751,-169.31,-3.44,0.16,0.04,0,0.99,-0.04,-0.4,-0.66,0.03,0,1,-0.03,-0.32,-0.63,0,0.98,-0.52,0.1,3.36,-2.08,1000,1020.94,1000,1005.43,189.05,0,3.79
21579841,-169.32,-3.44,0.16,0.04,0,0.99,-0.04,-0.31,-0.72,0.03,0,1,-0.03,-0.32,-0.63,0,0.98,-0.52,0.1,3.36,-2.08,1000,1020.94,1000,1005.43,189.05,0,3.79
21581169,-169.32,-3.44,0.16,0.03,0,0.99,0.01,-0.27,-0.66,0.03,0,1,-0.03,-0.32,-0.63,0,0.98,-0.52,0.1,3.36,-2.08,1000,1020.94,1000,1005.43,189.05,0,3.79
21584704,-169.32,-3.44,0.16,0.03,0,1,-0.12,-0.31,-0.66,0.03,0,1,-0.02,-0.32,-0.64,0,0.98,-0.52,0.1,3.36,-2.08,1000,1020.94,1000,1005.43,191.05,0,3.79
21585771,-169.32,-3.44,0.16,0.04,0,0.99,-0.08,-0.27,-0.66,0.03,0,1,-0.02,-0.32,-0.64,0,0.98,-0.52,0.1,3.36,-2.08,1000,1020.94,1000,1005.43,191.05,0,3.79
21587091,-169.32,-3.44,0.16,0.04,0,0.99,0.05,-0.31,-0.6,0.03,0,1,-0.02,-0.32,-0.64,0,0.98,-0.52,0.1,3.36,-2.08,1000,1020.94,1000,1005.43,191.05,0,3.79
21590566,-169.32,-3.44,0.16,0.03,0,1,0.01,-0.27,-0.66,0.03,0,1,-0.02,-0.32,-0.64,0,0.98,-0.52,0.1,3.36,-2.08,1000,1020.94,1000,1005.43,191.05,0,3.79
21591658,-169.32,-3.44,0.16,0.03,0,0.99,0.01,-0.36,-0.66,0.03,0,1,-0.02,-0.32,-0.64,0,0.98,-0.52,0.1,3.36,-2.08,1000,1020.95,1000,1005.43,191.05,0,3.79
21592992,-169.32,-3.44,0.16,0.03,0,0.99,-0.04,-0.31,-0.66,0.03,0,1,-0.02,-0.32,-0.64,0,0.98,-0.52,0.1,3.36,-2.08,1000,1020.95,1000,1005.43,191.05,0,3.79
21596469,-169.33,-3.44,0.16,0.03,0,1,0.01,-0.27,-0.66,0.03,0,1,-0.02,-0.32,-0.64,0,0.98,-0.52,0.1,3.36,-2.08,1000,1020.95,1000,1005.43,188.07,0,3.79
21597531,-169.33,-3.44,0.16,0.03,0,1,-0.04,-0.31,-0.66,0.03,0,1,-0.01,-0.32,-0.64,0,0.98,-0.52,0.1,3.36,-2.08,1000,1020.95,1000,1005.43,188.07,0,3.79
21598928,-169.33,-3.44,0.16,0.03,0,1,-0.04,-0.31,-0.6,0.03,0,1,-0.01,-0.32,-0.64,0,0.98,-0.52,0.1,3.36,-2.08,1000,1020.95,1000,1005.43,188.07,0,3.79
21602416,-169.33,-3.44,0.16,0.03,0,1,-0.04,-0.31,-0.66,0.03,0,1,-0.01,-0.32,-0.65,0,0.98,-0.52,0.1,3.36,-2.08,1000,1020.95,1000,1005.43,189.3,0,3.82
21603491,-169.33,-3.44,0.16,0.04,0,1,0.01,-0.36,-0.66,0.03,0,1,-0.01,-0.32,-0.65,0,0.98,-0.52,0.1,3.36,-2.08,1000,1020.95,1000,1005.43,189.3,0,3.79
21604838,-169.34,-3.44,0.16,0.03,0,1,-0.04,-0.31,-0.6,0.03,0,1,-0.01,-0.32,-0.65,0,0.98,-0.52,0.1,3.36,-2.08,1000,1020.95,1000,1005.43,189.3,0,3.79
21605862,-169.34,-3.44,0.16,0.03,0,1,0.01,-0.27,-0.6,0.03,0,1,-0.01,-0.32,-0.65,0,0.98,-0.52,0.1,3.36,-2.08,1000,1020.95,1000,1005.43,189.3,0,3.79
21609368,-169.34,-3.44,0.16,0.03,0,0.99,0.01,-0.36,-0.66,0.03,0,1,-0.01,-0.32,-0.65,0,0.98,-0.52,0.1,3.36,-2.08,1000,1020.95,1000,1005.43,186.77,0,3.79
21610441,-169.34,-3.44,0.16,0.03,0,1,0.01,-0.36,-0.66,0.03,0,1,-0.01,-0.32,-0.65,0,0.98,-0.52,0.1,3.36,-2.08,1000,1020.95,1000,1005.43,186.77,0,3.79
21611731,-169.35,-3.44,0.16,0.03,0,1,-0.04,-0.23,-0.72,0.03,0,1,-0.01,-0.32,-0.65,0,0.98,-0.52,0.1,3.36,-2.08,1000,1020.95,1000,1005.43,186.77,0,3.79
21615239,-169.35,-3.44,0.16,0.03,0,1,0.01,-0.27,-0.66,0.03,0,1,-0.01,-0.32,-0.65,0,0.98,-0.52,0.1,3.36,-2.08,1000,1020.95,1000,1005.43,187.53,0,3.79
21616310,-169.35,-3.44,0.16,0.04,0,0.99,-0.04,-0.31,-0.66,0.03,0,1,-0.01,-0.32,-0.65,0,0.98,-0.52,0.1,3.36,-2.08,1000,1020.95,1000,1005.43,187.53,0,3.79
21617647,-169.35,-3.44,0.16,0.04,0,1,0.01,-0.36,-0.6,0.03,0,1,-0.01,-0.32,-0.65,0,0.98,-0.52,0.1,3.36,-2.08,1000,1020.95,1000,1005.43,187.53,0,3.79
21621387,-169.36,-3.44,0.16,0.04,0,0.99,-0.04,-0.31,-0.66,0.03,0,1,-0.01,-0.32,-0.65,0,0.98,-0.52,0.1,3.36,-2.08,1000,1020.95,1000,1005.43,187.14,0,3.8
21624841,-169.36,-3.44,0.16,0.03,0,0.99,0.01,-0.36,-0.66,0.03,0,1,-0.01,-0.32,-0.65,0,0.98,-0.52,0.1,3.36,-2.08,1000,1020.95,1000,1005.43,187.14,0,3.79
21629832,-169.37,-3.44,0.16,0.03,0,1,-0.08,-0.36,-0.66,0.03,0,1,-0.01,-0.32,-0.65,0,0.98,-0.52,0.1,3.36,-2.08,1000,1020.95,1000,1005.43,188.35,0,3.8
21633152,-169.37,-3.44,0.16,0.03,0,1,-0.08,-0.27,-0.66,0.03,0,1,-0.01,-0.32,-0.65,0,0.98,-0.52,0.1,3.36,-2.08,1000,1020.95,1000,1005.43,188.35,0,3.79
21638204,-169.38,-3.44,0.16,0.04,0,1,-0.04,-0.31,-0.72,0.03,0,1,-0.01,-0.32,-0.65,0,0.98,-0.52,0.1,3.36,-2.08,1000,1020.95,1000,1005.43,188.56,0,3.8
21639402,-169.38,-3.44,0.16,0.03,0,1,-0.04,-0.23,-0.66,0.03,0,1,-0.01,-0.32,-0.65,0,0.98,-0.52,0.1,3.36,-2.08,1000,1020.95,1000,1005.43,188.56,0,3.79
21653935,-169.38,-3.44,0.16,0.03,0,1,-0.04,-0.31,-0.6,0.03,0,1,-0.01,-0.32,-0.66,0,0.98,-0.52,0.1,3.36,-2.08,1000,1020.95,1000,1005.43,187.43,0,3.79
21657522,-169.41,-3.44,0.16,0.03,0,0.99,-0.04,-0.31,-0.72,0.03,0,1,-0.01,-0.32,-0.66,0,0.98,-0.52,0.1,3.36,-2.08,1000,1020.95,1000,1005.43,183.85,0,3.8
21658551,-169.41,-3.44,0.16,0.03,0,0.99,-0.04,-0.31,-0.66,0.03,0,1,-0.01,-0.31,-0.66,0,0.98,-0.52,0.1,3.36,-2.08,1000,1020.95,1000,1005.43,183.85,0,3.79
21659544,-169.42,-3.44,0.16,0.03,0,1,-0.04,-0.31,-0.6,0.03,0,1,-0.01,-0.31,-0.66,0,0.98,-0.52,0.1,3.36,-2.08,1000,1020.95,1000,1005.43,183.85,0,3.79
21660559,-169.42,-3.44,0.16,0.03,0,1,-0.04,-0.31,-0.66,0.03,0,1,-0.01,-0.31,-0.66,0,0.98,-0.52,0.1,3.36,-2.08,1000,1020.95,1000,1005.43,183.85,0,3.79
21664042,-169.42,-3.44,0.16,0.03,0,0.99,-0.08,-0.27,-0.6,0.03,0,1,-0.01,-0.31,-0.66,0,0.98,-0.52,0.1,3.36,-2.08,1000,1020.95,1000,1005.43,185.43,0,3.77
21665080,-169.43,-3.44,0.16,0.04,0,1,0.01,-0.27,-0.6,0.03,0,1,-0.01,-0.31,-0.66,0,0.98,-0.52,0.1,3.36,-2.08,1000,1020.95,1000,1005.43,185.43,0,3.79
21666089,-169.43,-3.44,0.16,0.04,0,0.99,-0.04,-0.31,-0.6,0.03,0,1,-0.01,-0.31,-0.66,0,0.98,-0.52,0.1,3.36,-2.08,1000,1020.95,1000,1005.43,185.43,0,3.82
21669609,-169.43,-3.44,0.16,0.04,0,1,0.01,-0.36,-0.6,0.03,0,1,-0.02,-0.31,-0.66,0,0.98,-0.52,0.1,3.36,-2.08,1000,1020.95,1000,1005.43,186.07,0,3.79
21670653,-169.43,-3.44,0.16,0.04,0,1,-0.04,-0.31,-0.54,0.03,0,1,-0.02,-0.31,-0.66,0,0.98,-0.52,0.1,3.36,-2.08,1000,1020.95,1000,1005.43,186.07,0,3.79
21671946,-169.44,-3.44,0.16,0.03,0,0.99,0.01,-0.27,-0.66,0.03,0,1,-0.02,-0.31,-0.66,0,0.98,-0.52,0.1,3.36,-2.08,1000,1020.95,1000,1005.43,186.07,0,3.76
21675976,-169.44,-3.44,0.16,0.03,0,0.99,-0.04,-0.31,-0.66,0.03,0,1,-0.02,-0.31,-0.66,0,0.98,-0.52,0.1,3.36,-2.08,1000,1020.95,1000,1005.43,184.34,0,3.8
21678333,-169.45,-3.44,0.16,0.03,0,1,-0.04,-0.31,-0.78,0.03,0,1,-0.02,-0.31,-0.66,0,0.98,-0.52,0.1,3.36,-2.08,1000,1020.95,1000,1005.43,184.34,0,3.79
21682050,-169.46,-3.44,0.16,0.03,0,1,0.01,-0.27,-0.66,0.03,0,1,-0.02,-0.31,-0.66,0,0.98,-0.52,0.1,3.36,-2.08,1000,1023.45,1000,1007.93,184.34,0.64,3.79
21683082,-169.46,-3.44,0.16,0.03,0,1,0.01,-0.27,-0.66,0.03,0,1,-0.02,-0.31,-0.66,0,0.98,-0.52,0.1,3.36,-2.08,1000,1023.45,1000,1007.93,184.34,0.64,3.79
21684100,-169.46,-3.44,0.16,0.03,0,1,-0.04,-0.23,-0.66,0.03,0,1,-0.02,-0.31,-0.66,0,0.98,-0.52,0.1,3.36,-2.08,1000,1023.45,1000,1007.93,184.34,0.64,3.83
21687615,-169.46,-3.44,0.16,0.03,0,1,0.01,-0.27,-0.66,0.03,0,1,-0.02,-0.31,-0.66,0,0.98,-0.52,0.1,3.36,-2.08,1000,1023.45,1000,1007.93,188.91,0.64,3.79
21688711,-169.46,-3.44,0.16,0.03,0,1,-0.04,-0.31,-0.72,0.03,0,1,-0.02,-0.31,-0.66,0,0.98,-0.52,0.1,3.36,-2.08,1000,1023.45,1000,1007.93,188.91,0.64,3.79
21689728,-169.47,-3.44,0.16,0.03,0,1,-0.04,-0.31,-0.66,0.03,0,1,-0.02,-0.31,-0.66,0,0.98,-0.52,0.1,3.36,-2.08,1000,1023.45,1000,1007.93,188.91,0.64,3.79
21690758,-169.47,-3.44,0.16,0.03,0,1,0.01,-0.27,-0.66,0.03,0,1,-0.02,-0.31,-0.66,0,0.98,-0.52,0.1,3.36,-2.08,1000,1023.45,1000,1007.93,188.91,0.64,3.79
21694309,-169.47,-3.44,0.16,0.04,0,0.99,-0.04,-0.31,-0.66,0.03,0,1,-0.03,-0.31,-0.66,0,0.98,-0.52,0.1,3.36,-2.08,1000,1023.45,1000,1007.93,186.87,0.64,3.79
21695603,-169.47,-3.44,0.16,0.04,0,1,-0.08,-0.36,-0.66,0.03,0,1,-0.03,-0.31,-0.66,0,0.98,-0.52,0.1,3.36,-2.08,1000,1023.45,1000,1007.93,186.87,0.64,3.79
21696629,-169.47,-3.44,0.16,0.04,0,1,-0.12,-0.31,-0.6,0.03,0,1,-0.03,-0.31,-0.66,0,0.98,-0.52,0.1,3.36,-2.08,1000,1023.45,1000,1007.93,186.87,0.64,3.79
21700163,-169.48,-3.45,0.16,0.04,0,0.99,0.05,-0.31,-0.66,0.03,0,1,-0.03,-0.31,-0.66,0,0.98,-0.52,0.1,3.36,-2.08,1000,1023.45,1000,1007.94,188.82,0.64,3.8
21701192,-169.48,-3.45,0.16,0.04,0,1,-0.04,-0.31,-0.6,0.03,0,1,-0.03,-0.31,-0.66,0,0.98,-0.52,0.1,3.36,-2.08,1000,1023.45,1000,1007.94,188.82,0.64,3.79
21702487,-169.48,-3.45,0.16,0.03,0,1,-0.04,-0.31,-0.6,0.03,0,1,-0.03,-0.31,-0.66,0,0.98,-0.52,0.1,3.36,-2.08,1000,1023.45,1000,1007.94,188.82,0.64,3.79
21705997,-169.49,-3.45,0.16,0.04,0,1,-0.04,-0.23,-0.66,0.03,0,1,-0.03,-0.31,-0.66,0,0.98,-0.52,0.1,3.36,-2.08,1000,1023.45,1000,1007.94,185.3,0.64,3.79
21707046,-169.49,-3.45,0.16,0.03,0,1,0.01,-0.27,-0.66,0.03,0,1,-0.03,-0.31,-0.66,0,0.98,-0.52,0.1,3.36,-2.08,1000,1023.45,1000,1007.94,185.3,0.64,3.79
21708448,-169.49,-3.45,0.16,0.04,0,1,0.01,-0.27,-0.66,0.03,0,1,-0.03,-0.31,-0.66,0,0.98,-0.52,0.1,3.36,-2.08,1000,1023.45,1000,1007.94,185.3,0.64,3.79
21711940,-169.5,-3.45,0.16,0.03,0,1,0.01,-0.36,-0.66,0.03,0,1,-0.03,-0.31,-0.66,0,0.98,-0.52,0.1,3.36,-2.08,1000,1023.45,1000,1007.94,185.3,0.64,3.79
21712946,-169.5,-3.45,0.16,0.03,0,1,0.01,-0.36,-0.6,0.03,0,1,-0.03,-0.31,-0.66,0,0.98,-0.52,0.1,3.36,-2.08,1000,1023.45,1000,1007.94,185.3,0.64,3.79
21714349,-169.5,-3.45,0.16,0.03,0,0.99,0.05,-0.31,-0.6,0.03,0,1,-0.03,-0.31,-0.66,0,0.98,-0.52,0.1,3.36,-2.08,1000,1023.45,1000,1007.94,185.3,0.64,3.76
21717850,-169.51,-3.45,0.16,0.03,0,1,-0.04,-0.31,-0.66,0.03,0,1,-0.03,-0.31,-0.66,0,0.98,-0.52,0.1,3.36,-2.08,1000,1023.45,1000,1007.94,185.3,0.64,3.79
21718886,-169.51,-3.45,0.16,0.04,0,1,-0.08,-0.36,-0.66,0.03,0,1,-0.03,-0.31,-0.66,0,0.98,-0.52,0.1,3.36,-2.08,1000,1023.45,1000,1007.94,185.3,0.64,3.79
21720295,-169.51,-3.45,0.16,0.03,0,1,-0.04,-0.31,-0.66,0.03,0,1,-0.03,-0.31,-0.66,0,0.98,-0.52,0.1,3.36,-2.08,1000,1023.45,1000,1007.94,185.3,0.64,3.82
21723986,-169.51,-3.45,0.16,0.04,0,1,-0.04,-0.31,-0.66,0.03,0,1,-0.03,-0.31,-0.66,0,0.98,-0.52,0.1,3.36,-2.08,1000,1023.45,1000,1007.94,189.31,0.64,3.79
21727436,-169.52,-3.45,0.16,0.03,0,1,-0.04,-0.31,-0.6,0.03,0,1,-0.03,-0.31,-0.66,0,0.98,-0.52,0.1,3.36,-2.08,1000,1023.45,1000,1007.94,189.31,0.64,3.79
21732460,-169.52,-3.45,0.16,0.04,0,0.99,-0.04,-0.31,-0.6,0.03,0,1,-0.03,-0.31,-0.66,0,0.98,-0.52,0.1,3.36,-2.08,1000,1023.45,1000,1007.94,187.29,0.64,3.79
21735772,-169.53,-3.45,0.16,0.03,0,1,-0.04,-0.31,-0.66,0.03,0,1,-0.03,-0.31,-0.66,0,0.98,-0.52,0.1,3.36,-2.08,1000,1023.45,1000,1007.94,187.29,0.64,3.79
21741023,-169.54,-3.45,0.16,0.03,0.01,1,-0.04,-0.31,-0.72,0.03,0,1,-0.03,-0.31,-0.66,0,0.98,-0.52,0.1,3.36,-2.08,1000,1023.45,1000,1007.94,182.86,0.64,3.69
21755559,-169.54,-3.45,0.16,0.04,0,0.99,0.05,-0.23,-0.6,0.03,0,1,-0.03,-0.31,-0.66,0,0.98,-0.52,0.1,3.36,-2.08,1000,1023.45,1000,1007.94,185.85,0.64,3.79
21759172,-169.57,-3.45,0.16,0.03,0,0.99,-0.04,-0.31,-0.66,0.03,0,1,-0.03,-0.31,-0.66,0,0.98,-0.52,0.1,3.36,-2.08,1000,1023.45,1000,1007.94,185.85,0.64,3.76
21760204,-169.57,-3.45,0.16,0.04,0,0.99,0.01,-0.27,-0.72,0.03,0,1,-0.03,-0.31,-0.66,0,0.98,-0.52,0.1,3.36,-2.08,1000,1023.45,1000,1007.94,185.85,0.64,3.78
21761233,-169.57,-3.45,0.16,0.03,0,1,0.01,-0.27,-0.66,0.03,0,1,-0.03,-0.31,-0.66,0,0.98,-0.52,0.1,3.36,-2.08,1000,1023.45,1000,1007.94,185.85,0.64,3.79
21764780,-169.58,-3.45,0.16,0.04,0,1,-0.04,-0.31,-0.66,0.03,0,1,-0.03,-0.31,-0.66,0,0.98,-0.52,0.1,3.36,-2.08,1000,1023.45,1000,1007.94,187.75,0.64,3.79
21765838,-169.58,-3.45,0.16,0.04,0,1,-0.04,-0.4,-0.6,0.03,0,1,-0.03,-0.31,-0.66,0,0.98,-0.52,0.1,3.36,-2.08,1000,1023.45,1000,1007.94,187.75,0.64,3.79
21766867,-169.58,-3.45,0.16,0.03,0,0.99,0.01,-0.36,-0.66,0.03,0,1,-0.03,-0.31,-0.66,0,0.98,-0.52,0.1,3.36,-2.08,1000,1023.45,1000,1007.94,187.75,0.64,3.79
21767876,-169.58,-3.45,0.16,0.03,0,0.99,0.01,-0.27,-0.66,0.03,0,1,-0.03,-0.31,-0.66,0,0.98,-0.52,0.1,3.36,-2.08,1000,1023.45,1000,1007.94,187.75,0.64,3.79
21771412,-169.58,-3.45,0.16,0.03,0,1,-0.08,-0.27,-0.66,0.03,0,1,-0.03,-0.31,-0.66,0,0.98,-0.52,0.1,3.36,-2.08,1000,1023.45,1000,1007.94,187.32,0.64,3.79
21772548,-169.59,-3.45,0.16,0.04,0,0.99,-0.04,-0.31,-0.6,0.03,0,1,-0.03,-0.31,-0.66,0,0.98,-0.52,0.1,3.36,-2.08,1000,1023.45,1000,1007.94,187.32,0.64,3.79
21773541,-169.59,-3.45,0.16,0.04,0,0.99,-0.04,-0.31,-0.6,0.03,0,1,-0.03,-0.31,-0.66,0,0.98,-0.52,0.1,3.36,-2.08,1000,1023.45,1000,1007.94,187.32,0.64,3.79
21777043,-169.59,-3.45,0.16,0.03,0,1,-0.04,-0.23,-0.72,0.03,0,1,-0.03,-0.31,-0.66,0,0.98,-0.52,0.1,3.36,-2.08,1000,1023.45,1000,1007.94,184.7,0.64,3.77
21778088,-169.59,-3.45,0.16,0.03,0,0.99,0.01,-0.27,-0.66,0.03,0,1,-0.03,-0.31,-0.66,0,0.98,-0.52,0.1,3.36,-2.08,1000,1023.45,1000,1007.94,184.7,0.64,3.79
21779478,-169.6,-3.45,0.16,0.03,0,1,-0.08,-0.36,-0.6,0.03,0,1,-0.03,-0.31,-0.66,0,0.98,-0.52,0.1,3.36,-2.08,1000,1023.45,1000,1007.94,184.7,0.64,3.79
21782939,-169.6,-3.45,0.16,0.04,0,1,0.01,-0.36,-0.66,0.03,0,1,-0.03,-0.31,-0.66,0,0.98,-0.52,0.1,3.36,-2.08,1000,1023.45,1000,1007.94,184.77,0.64,3.79
21783968,-169.61,-3.45,0.16,0.04,0,0.99,-0.04,-0.4,-0.66,0.03,0,1,-0.03,-0.31,-0.66,0,0.98,-0.52,0.1,3.36,-2.08,1000,1023.45,1000,1007.94,184.77,0.64,3.79
21784968,-169.61,-3.45,0.16,0.04,0,0.99,-0.08,-0.36,-0.66,0.03,0,1,-0.03,-0.31,-0.66,0,0.98,-0.52,0.1,3.36,-2.08,1000,1023.45,1000,1007.94,184.77,0.64,3.67
21788472,-169.61,-3.45,0.16,0.04,0,0.99,0.05,-0.31,-0.66,0.03,0,1,-0.03,-0.31,-0.66,0,0.98,-0.52,0.1,3.36,-2.08,1000,1023.45,1000,1007.94,184.7,0.64,3.81
21789517,-169.62,-3.45,0.16,0.03,0,1,0.01,-0.36,-0.6,0.03,0,1,-0.03,-0.31,-0.66,0,0.98,-0.52,0.1,3.36,-2.08,1000,1023.45,1000,1007.94,184.7,0.64,3.79
21790510,-169.62,-3.45,0.16,0.03,0,1,0.01,-0.36,-0.6,0.03,0,1,-0.03,-0.31,-0.66,0,0.98,-0.52,0.1,3.36,-2.08,1000,1023.45,1000,1007.94,184.7,0.64,3.69
21791524,-169.62,-3.45,0.16,0.04,0,1,-0.08,-0.36,-0.66,0.03,0,1,-0.03,-0.31,-0.66,0,0.98,-0.52,0.1,3.36,-2.08,1000,1023.45,1000,1007.94,184.7,0.64,3.8
21795233,-169.62,-3.45,0.16,0.03,0,1,-0.04,-0.31,-0.66,0.03,0,1,-0.03,-0.31,-0.66,0,0.98,-0.52,0.1,3.36,-2.08,1000,1023.45,1000,1007.94,188.17,0.64,3.79
21797591,-169.62,-3.45,0.16,0.04,0,0.99,-0.04,-0.31,-0.66,0.03,0,1,-0.03,-0.31,-0.66,0,0.98,-0.52,0.1,3.36,-2.08,1000,1023.45,1000,1007.94,188.17,0.64,3.79
21801452,-169.63,-3.45,0.16,0.03,0,1,-0.04,-0.31,-0.66,0.03,0,1,-0.03,-0.31,-0.66,0,0.98,-0.52,0.1,3.36,-2.08,1032.42,1075.11,1049.53,1059.61,187.96,13.81,3.79
21802492,-169.63,-3.45,0.16,0.03,0,1,0.01,-0.36,-0.6,0.03,0,1,-0.03,-0.31,-0.66,0,0.98,-0.52,0.1,3.36,-2.08,1032.42,1075.11,1049.53,1059.61,187.96,13.81,3.79
21803486,-169.63,-3.45,0.16,0.03,0,0.99,0.05,-0.31,-0.66,0.03,0,1,-0.03,-0.31,-0.66,0,0.98,-0.52,0.1,3.36,-2.08,1032.42,1075.11,1049.53,1059.61,187.96,13.81,3.79
21806970,-169.64,-3.45,0.16,0.03,0,1,-0.04,-0.31,-0.66,0.03,0,1,-0.03,-0.31,-0.66,0,0.98,-0.52,0.1,3.36,-2.08,1032.42,1075.11,1049.53,1059.61,188.05,13.81,3.8
21808100,-169.64,-3.45,0.16,0.03,0,1,-0.04,-0.31,-0.6,0.03,0,1,-0.03,-0.31,-0.66,0,0.98,-0.52,0.1,3.36,-2.08,1032.42,1075.11,1049.53,1059.61,188.05,13.81,3.79
21809124,-169.64,-3.45,0.16,0.03,0,1,-0.04,-0.31,-0.66,0.03,0,1,-0.03,-0.31,-0.66,0,0.98,-0.52,0.1,3.36,-2.08,1032.42,1075.11,1049.53,1059.61,188.05,13.81,3.79
21812625,-169.64,-3.45,0.16,0.04,0,1,-0.04,-0.31,-0.66,0.03,0,1,-0.03,-0.31,-0.66,0,0.98,-0.52,0.1,3.36,-2.08,1032.42,1075.11,1049.53,1059.61,188.05,13.81,3.79
21813673,-169.64,-3.45,0.16,0.03,0,1,-0.08,-0.36,-0.66,0.03,0,1,-0.03,-0.31,-0.66,0,0.98,-0.52,0.1,3.36,-2.08,1032.42,1075.11,1049.53,1059.61,188.05,13.81,3.79
21815013,-169.65,-3.45,0.16,0.04,0,1,0.01,-0.36,-0.6,0.03,0,1,-0.03,-0.31,-0.66,0,0.98,-0.52,0.1,3.36,-2.08,1032.42,1075.11,1049.53,1059.61,188.05,13.81,3.84
21818531,-169.65,-3.45,0.16,0.03,0,0.99,-0.04,-0.31,-0.66,0.03,0,1,-0.03,-0.31,-0.66,0,0.98,-0.52,0.1,3.36,-2.08,1032.42,1075.11,1049.53,1059.61,188.05,13.81,3.79
21819575,-169.65,-3.45,0.16,0.03,0,1,0.01,-0.36,-0.6,0.03,0,1,-0.03,-0.31,-0.66,0,0.98,-0.52,0.1,3.36,-2.08,1032.42,1075.11,1049.53,1059.61,188.05,13.81,3.79
21820911,-169.65,-3.45,0.16,0.03,0,1,-0.04,-0.31,-0.66,0.03,0,1,-0.03,-0.31,-0.66,0,0.98,-0.52,0.1,3.36,-2.08,1032.42,1075.11,1049.53,1059.61,188.05,13.81,3.79
21824670,-169.66,-3.45,0.16,0.03,0,1,-0.04,-0.31,-0.72,0.03,0,1,-0.03,-0.31,-0.66,0,0.98,-0.52,0.1,3.36,-2.08,1032.42,1075.11,1049.53,1059.61,185.73,13.81,3.68
21828089,-169.66,-3.45,0.16,0.04,0,0.99,0.01,-0.27,-0.72,0.03,0,1,-0.03,-0.31,-0.66,0,0.98,-0.52,0.1,3.36,-2.08,1032.42,1075.11,1049.53,1059.61,185.73,13.81,3.79
21833099,-169.67,-3.45,0.16,0.03,0,0.99,-0.04,-0.31,-0.66,0.03,0,1,-0.03,-0.31,-0.66,0,0.98,-0.52,0.1,3.36,-2.08,1032.42,1075.11,1049.52,1059.61,186.67,13.81,3.8
21836403,-169.67,-3.45,0.16,0.04,0,1,-0.08,-0.27,-0.6,0.03,0,1,-0.03,-0.31,-0.66,0,0.98,-0.52,0.1,3.36,-2.08,1032.42,1075.11,1049.52,1059.61,186.67,13.81,3.79
21841459,-169.68,-3.45,0.16,0.03,0,0.99,-0.04,-0.31,-0.66,0.03,0,1,-0.03,-0.31,-0.66,0,0.98,-0.52,0.1,3.36,-2.08,1032.42,1075.11,1049.52,1059.61,185.67,13.81,3.71
21842618,-169.68,-3.45,0.16,0.03,0,1,-0.04,-0.23,-0.66,0.03,0,1,-0.03,-0.31,-0.66,0,0.98,-0.52,0.1,3.36,-2.08,1032.42,1075.12,1049.52,1059.61,185.67,13.81,3.79
21857142,-169.69,-3.45,0.16,0.03,0,1,0.01,-0.36,-0.66,0.03,0,1,-0.04,-0.31,-0.66,0,0.98,-0.52,0.1,3.36,-2.08,1032.42,1075.12,1049.52,1059.61,188.23,13.81,3.79
21860715,-169.7,-3.45,0.16,0.03,0,1,-0.08,-0.27,-0.66,0.03,0,1,-0.04,-0.31,-0.66,0,0.98,-0.52,0.1,3.36,-2.08,1032.42,1075.12,1049.52,1059.61,188.23,13.81,3.81
21861750,-169.71,-3.45,0.16,0.03,0,1,-0.04,-0.31,-0.66,0.03,0,1,-0.04,-0.31,-0.66,0,0.98,-0.52,0.1,3.36,-2.08,1032.42,1075.12,1049.52,1059.61,188.23,13.81,3.79
21862787,-169.71,-3.45,0.16,0.03,0,0.99,0.01,-0.36,-0.6,0.03,0,1,-0.04,-0.31,-0.66,0,0.98,-0.52,0.1,3.36,-2.08,1032.42,1075.12,1049.52,1059.61,188.23,13.81,3.79
21863794,-169.71,-3.45,0.16,0.03,0,0.99,0.05,-0.31,-0.6,0.03,0,1,-0.04,-0.31,-0.66,0,0.98,-0.52,0.1,3.36,-2.08,1032.42,1075.12,1049.52,1059.61,188.23,13.81,3.77
21867322,-169.71,-3.45,0.16,0.04,0,1,-0.04,-0.31,-0.6,0.03,0,1,-0.04,-0.31,-0.66,0,0.98,-0.52,0.1,3.36,-2.08,1032.42,1075.12,1049.52,1059.61,183.15,13.81,3.79
21868380,-169.72,-3.45,0.16,0.04,0,1,-0.08,-0.36,-0.72,0.03,0,1,-0.04,-0.31,-0.66,0,0.98,-0.52,0.1,3.36,-2.08,1032.42,1075.12,1049.52,1059.61,183.15,13.81,3.79
21869416,-169.72,-3.45,0.16,0.04,0,1,-0.04,-0.4,-0.66,0.03,0,1,-0.04,-0.31,-0.66,0,0.98,-0.52,0.1,3.36,-2.08,1032.42,1075.12,1049.52,1059.61,183.15,13.81,3.79
21872909,-169.73,-3.45,0.16,0.03,0,1,-0.04,-0.23,-0.6,0.03,0,1,-0.04,-0.31,-0.66,0,0.98,-0.52,0.1,3.36,-2.08,1032.42,1075.12,1049.52,1059.61,184.07,13.81,3.79
21874161,-169.73,-3.45,0.16,0.03,0,1,0.01,-0.36,-0.6,0.03,0,1,-0.04,-0.31,-0.66,0,0.98,-0.52,0.1,3.36,-2.08,1032.42,1075.12,1049.52,1059.61,184.07,13.81,3.79
21875177,-169.73,-3.45,0.16,0.03,0,1,0.01,-0.36,-0.6,0.03,0,1,-0.04,-0.31,-0.66,0,0.98,-0.52,0.1,3.36,-2.08,1032.42,1075.12,1049.52,1059.61,184.07,13.81,3.79
21878688,-169.73,-3.45,0.16,0.03,0,1,-0.08,-0.27,-0.66,0.03,0,1,-0.04,-0.31,-0.66,0,0.98,-0.52,0.1,3.36,-2.08,1032.42,1075.12,1049.52,1059.61,187.78,13.81,3.8
21879727,-169.74,-3.45,0.16,0.03,0,1,-0.04,-0.31,-0.6,0.03,0,1,-0.04,-0.31,-0.66,0,0.98,-0.52,0.1,3.36,-2.08,1032.42,1075.12,1049.52,1059.61,187.78,13.81,3.79
21881093,-169.74,-3.45,0.16,0.04,0,1,-0.08,-0.27,-0.66,0.03,0,1,-0.04,-0.31,-0.66,0,0.98,-0.52,0.1,3.36,-2.08,1032.42,1075.12,1049.52,1059.61,187.78,13.81,3.79
21884633,-169.74,-3.45,0.16,0.03,0,1,-0.04,-0.31,-0.66,0.03,0,1,-0.04,-0.31,-0.66,0,0.98,-0.52,0.1,3.37,-2.08,1032.42,1075.12,1049.52,1059.61,186.21,13.81,3.79
21886801,-169.74,-3.45,0.16,0.04,0,1,0.01,-0.36,-0.6,0.03,0,1,-0.04,-0.31,-0.66,0,0.98,-0.52,0.1,3.37,-2.08,1032.42,1075.12,1049.52,1059.61,186.21,13.81,3.79
21888977,-169.75,-3.45,0.16,0.03,0,1,-0.04,-0.31,-0.66,0.03,0,1,-0.04,-0.31,-0.66,0,0.98,-0.52,0.1,3.37,-2.08,1135.75,1178.45,1152.86,1162.94,186.21,40.16,3.79
21892564,-169.75,-3.45,0.16,0.03,0,1,0.01,-0.27,-0.6,0.03,0,1,-0.04,-0.31,-0.66,0,0.98,-0.52,0.1,3.37,-2.08,1135.75,1178.45,1152.86,1162.94,185.56,40.16,3.79
21893614,-169.76,-3.45,0.16,0.03,0,1,-0.08,-0.36,-0.66,0.03,0,1,-0.04,-0.31,-0.66,0,0.98,-0.52,0.1,3.37,-2.08,1135.75,1178.45,1152.86,1162.94,185.56,40.16,3.79
21894674,-169.76,-3.45,0.16,0.03,0,1,-0.04,-0.31,-0.6,0.03,0,1,-0.04,-0.31,-0.66,0,0.98,-0.52,0.1,3.37,-2.08,1135.75,1178.45,1152.86,1162.94,185.56,40.16,3.82
21898331,-169.76,-3.45,0.16,0.04,0,0.99,0.01,-0.36,-0.72,0.03,0,1,-0.04,-0.31,-0.66,0,0.98,-0.52,0.1,3.37,-2.08,1135.75,1178.45,1152.86,1162.94,186.64,40.16,3.79
21899384,-169.76,-3.45,0.16,0.04,0,1,0.01,-0.36,-0.72,0.03,0,1,-0.04,-0.31,-0.66,0,0.98,-0.52,0.1,3.37,-2.08,1135.75,1178.45,1152.86,1162.94,186.64,40.16,3.79
21900200,-169.77,-3.45,0.16,0.04,0,1,0.01,-0.36,-0.6,0.03,0,1,-0.04,-0.31,-0.66,0,0.98,-0.52,0.1,3.37,-2.08,1135.75,1178.45,1152.86,1162.94,186.64,40.16,3.79
21904341,-169.77,-3.45,0.16,0.03,0,0.99,0.01,-0.27,-0.66,0.03,0,1,-0.04,-0.31,-0.66,0,0.98,-0.52,0.1,3.37,-2.08,1135.75,1178.45,1152.86,1162.94,187.69,40.16,3.79
21905390,-169.77,-3.45,0.16,0.03,0,1,-0.04,-0.31,-0.72,0.03,0,1,-0.04,-0.31,-0.65,0,0.98,-0.52,0.1,3.37,-2.08,1135.75,1178.45,1152.86,1162.94,187.69,40.16,3.79
21906520,-169.77,-3.45,0.16,0.03,0,1,0.01,-0.27,-0.6,0.03,0,1,-0.04,-0.31,-0.65,0,0.98,-0.52,0.1,3.37,-2.08,1135.75,1178.45,1152.86,1162.94,187.69,40.16,3.79
