timestamp,yaw,pitch,roll,raw accel x,raw accel y,raw accel z,raw gyro x,raw gyro y,raw gyro z,filtered accel x,filtered accel y,filtered accel z,filtered gyro x,filtered gyro y,filtered gyro z,angle out yaw,angle out pitch,angle out roll,rate out yaw,rate out pitch,rate out roll,motor 1,motor 2 ,motor 3,motor 4,mag heading,throttle,voltage
36452807,22.08,-0.89,2.32,0.04,0.01,1,0.08,-0.03,0,0.01,0.04,1,0.02,-0.02,-0.09,0,0.62,-0.82,-0.08,2.39,-2.92,1000,1021.13,1001.76,1000,24.33,0,3.87
36456689,22.07,-0.89,2.32,0.04,0.02,1,0.02,-0.03,-0.06,0.01,0.04,1,0.02,-0.02,-0.09,0,0.62,-0.82,-0.08,2.39,-2.92,1000,1021.13,1001.76,1000,21.88,0,3.91
36491888,22.08,-0.89,2.32,0.04,0.02,0.99,0.08,-0.03,-0.06,0.01,0.04,1,0.02,-0.02,-0.09,0,0.62,-0.82,-0.08,2.39,-2.92,1000,1021.14,1001.76,1000,23.65,0,3.92
36496333,22.08,-0.89,2.32,0.04,0.02,1,-0.04,-0.03,-0.06,0.01,0.04,1,0.02,-0.02,-0.09,0,0.62,-0.82,-0.08,2.39,-2.92,1000,1021.14,1001.76,1000,23.65,0,3.9
36541551,22.08,-0.89,2.32,0.04,0.02,1,0.02,0.03,0,0.01,0.04,1,0.02,-0.02,-0.09,0,0.62,-0.82,-0.08,2.39,-2.92,1000,1021.14,1001.76,1000,21.82,0,3.92
36549378,22.09,-0.89,2.32,0.04,0.02,1,0.02,-0.03,-0.12,0.01,0.04,1,0.02,-0.02,-0.09,0,0.62,-0.82,-0.08,2.39,-2.92,1000,1021.14,1001.76,1000,23.62,0,3.91
36554485,22.09,-0.89,2.32,0.04,0.02,1,-0.04,-0.09,-0.12,0.01,0.04,1,0.02,-0.02,-0.09,0,0.62,-0.82,-0.08,2.39,-2.92,1000,1021.14,1001.76,1000,21.81,0,3.98
36555637,22.09,-0.89,2.32,0.04,0.02,1,0.02,-0.09,-0.06,0.01,0.04,1,0.02,-0.02,-0.09,0,0.62,-0.82,-0.08,2.39,-2.92,1000,1021.14,1001.76,1000,21.81,0,3.9
36559123,22.09,-0.89,2.32,0.04,0.02,1,0.02,-0.03,-0.06,0.01,0.04,1,0.02,-0.02,-0.09,0,0.62,-0.82,-0.08,2.39,-2.92,1000,1021.14,1001.76,1000,22.97,0,3.94
36560326,22.09,-0.89,2.32,0.04,0.02,1,0.14,-0.03,-0.06,0.01,0.04,1,0.02,-0.02,-0.09,0,0.62,-0.82,-0.08,2.39,-2.92,1000,1021.14,1001.76,1000,22.97,0,3.91
36561485,22.09,-0.89,2.32,0.04,0.02,1,0.08,-0.03,-0.12,0.01,0.04,1,0.02,-0.02,-0.09,0,0.62,-0.82,-0.08,2.39,-2.92,1000,1021.14,1001.76,1000,22.97,0,3.91
36565108,22.09,-0.89,2.32,0.04,0.02,1,0.02,-0.09,0,0.01,0.04,1,0.02,-0.02,-0.09,0,0.62,-0.82,-0.08,2.39,-2.92,1000,1021.14,1001.76,1000,22.97,0,3.91
36566288,22.09,-0.89,2.32,0.04,0.02,1,0.02,-0.03,0,0.01,0.04,1,0.02,-0.02,-0.09,0,0.62,-0.82,-0.08,2.39,-2.92,1000,1021.14,1001.76,1000,22.97,0,3.91
36567442,22.09,-0.89,2.32,0.04,0.02,1,0.08,-0.03,0,0.01,0.04,1,0.02,-0.02,-0.09,0,0.62,-0.82,-0.08,2.39,-2.92,1000,1021.14,1001.75,1000,22.97,0,3.85
36570914,22.09,-0.89,2.32,0.04,0.02,1,0.02,0.03,0,0.01,0.04,1,0.02,-0.02,-0.09,0,0.62,-0.82,-0.08,2.39,-2.92,1000,1021.14,1001.75,1000,20.47,0,3.88
36572080,22.09,-0.89,2.32,0.04,0.02,1,0.02,-0.03,-0.12,0.01,0.04,1,0.02,-0.02,-0.09,0,0.62,-0.82,-0.08,2.39,-2.92,1000,1021.14,1001.75,1000,20.47,0,3.91
36573232,22.09,-0.89,2.32,0.04,0.02,1,-0.04,0.03,-0.06,0.01,0.04,1,0.02,-0.02,-0.09,0,0.62,-0.82,-0.08,2.39,-2.92,1000,1021.14,1001.75,1000,20.47,0,3.91
36576684,22.09,-0.89,2.32,0.04,0.02,1,-0.04,0.03,-0.12,0.01,0.04,1,0.02,-0.02,-0.09,0,0.62,-0.82,-0.09,2.39,-2.92,1000,1021.14,1001.75,1000,21.84,0,3.9
36577878,22.09,-0.89,2.32,0.04,0.02,1,0.02,-0.03,-0.06,0.01,0.04,1,0.02,-0.02,-0.09,0,0.62,-0.82,-0.09,2.39,-2.92,1000,1021.14,1001.75,1000,21.84,0,3.9
36579048,22.09,-0.89,2.32,0.04,0.02,1,0.02,-0.03,-0.06,0.01,0.04,1,0.02,-0.02,-0.09,0,0.62,-0.82,-0.09,2.39,-2.92,1000,1021.15,1001.75,1000,21.84,0,3.9
36582514,22.09,-0.89,2.32,0.04,0.02,1,0.02,-0.09,-0.06,0.01,0.04,1,0.02,-0.02,-0.09,0,0.62,-0.82,-0.09,2.39,-2.92,1000,1021.15,1001.75,1000,21.29,0,3.9
36583736,22.09,-0.89,2.32,0.04,0.02,1,-0.04,-0.09,-0.06,0.01,0.04,1,0.02,-0.02,-0.08,0,0.62,-0.82,-0.09,2.39,-2.92,1000,1021.15,1001.75,1000,21.29,0,3.97
36584938,22.08,-0.89,2.32,0.04,0.02,1,-0.04,-0.03,-0.06,0.01,0.04,1,0.02,-0.02,-0.08,0,0.62,-0.82,-0.09,2.39,-2.92,1000,1021.15,1001.75,1000,21.29,0,3.9
36588411,22.09,-0.89,2.32,0.04,0.02,1,0.02,-0.03,0,0.01,0.04,1,0.02,-0.02,-0.08,0,0.62,-0.82,-0.09,2.39,-2.92,1000,1021.15,1001.75,1000,23.3,0,3.9
36589627,22.09,-0.89,2.32,0.04,0.02,1,-0.04,0.03,-0.06,0.01,0.04,1,0.02,-0.02,-0.08,0,0.62,-0.82,-0.09,2.39,-2.92,1000,1021.15,1001.75,1000,23.3,0,3.9
36590819,22.09,-0.89,2.32,0.04,0.02,1,-0.1,0.03,0,0.01,0.04,1,0.02,-0.02,-0.08,0,0.62,-0.82,-0.09,2.39,-2.92,1000,1021.15,1001.75,1000,23.3,0,3.91
36592239,22.09,-0.89,2.32,0.04,0.02,1,0.02,0.03,0.06,0.01,0.04,1,0.02,-0.02,-0.08,0,0.62,-0.82,-0.09,2.39,-2.92,1000,1021.15,1001.75,1000,23.3,0,3.8
36597454,22.09,-0.89,2.32,0.04,0.02,1,0.08,-0.03,-0.06,0.01,0.04,1,0.02,-0.02,-0.08,0,0.62,-0.82,-0.09,2.39,-2.92,1000,1021.15,1001.75,1000,22.52,0,3.84
36600688,22.09,-0.89,2.32,0.04,0.02,1,0.02,-0.09,0,0.01,0.04,1,0.02,-0.02,-0.08,0,0.62,-0.82,-0.09,2.39,-2.92,1000,1021.15,1001.75,1000,22.52,0,3.84
36605732,22.09,-0.89,2.32,0.04,0.02,1,-0.04,-0.03,0,0.01,0.04,1,0.02,-0.02,-0.08,0,0.62,-0.82,-0.09,2.39,-2.92,1000,1021.15,1001.75,1000,22.17,0,3.9
36609014,22.09,-0.89,2.32,0.04,0.02,1,0.02,0.03,0,0.01,0.04,1,0.02,-0.02,-0.08,0,0.62,-0.82,-0.09,2.39,-2.92,1000,1021.15,1001.74,1000,22.17,0,3.9
36612576,22.08,-0.89,2.32,0.04,0.02,1,0.02,0.03,-0.12,0.01,0.04,1,0.02,-0.02,-0.08,0,0.62,-0.82,-0.09,2.39,-2.92,1000,1021.15,1001.74,1000,19.76,0,3.9
36624828,22.08,-0.89,2.32,0.04,0.02,1,0.02,-0.03,-0.06,0.01,0.04,1,0.02,-0.02,-0.08,0,0.62,-0.82,-0.09,2.39,-2.92,1000,1021.15,1001.74,1000,19.76,0,3.91
36628412,22.08,-0.89,2.32,0.04,0.02,1,0.02,-0.03,-0.12,0.01,0.04,1,0.02,-0.02,-0.08,0,0.62,-0.82,-0.09,2.39,-2.92,1000,1021.15,1001.74,1000,22.88,0,3.91
36629543,22.08,-0.89,2.32,0.04,0.02,1,0.08,0.03,-0.12,0.01,0.04,1,0.02,-0.02,-0.08,0,0.62,-0.82,-0.09,2.39,-2.92,1000,1021.15,1001.74,1000,22.88,0,3.9
36633306,22.08,-0.89,2.32,0.04,0.02,1,0.02,-0.03,-0.06,0.01,0.04,1,0.02,-0.02,-0.08,0,0.62,-0.82,-0.09,2.39,-2.92,1000,1021.16,1001.74,1000,21.71,0,3.91
36634497,22.08,-0.89,2.32,0.04,0.02,1,0.02,-0.03,-0.06,0.01,0.04,1,0.02,-0.02,-0.08,0,0.62,-0.82,-0.09,2.39,-2.92,1000,1021.16,1001.74,1000,21.71,0,3.91
36636025,22.08,-0.89,2.32,0.04,0.02,1,0.02,0.03,-0.06,0.01,0.04,1,0.02,-0.02,-0.08,0,0.62,-0.82,-0.09,2.39,-2.92,1000,1021.16,1001.74,1000,21.71,0,3.91
36639501,22.08,-0.89,2.32,0.04,0.02,1,0.02,-0.03,0,0.01,0.04,1,0.03,-0.02,-0.08,0,0.62,-0.82,-0.09,2.39,-2.92,1000,1021.16,1001.74,1000,22.22,0,3.91
36640915,22.08,-0.89,2.32,0.04,0.02,1,0.02,-0.09,-0.06,0.01,0.04,1,0.03,-0.02,-0.08,0,0.62,-0.82,-0.09,2.39,-2.92,1000,1021.16,1001.74,1000,22.22,0,3.9
36642075,22.08,-0.89,2.32,0.04,0.01,1,-0.04,-0.03,-0.06,0.01,0.04,1,0.03,-0.02,-0.08,0,0.62,-0.82,-0.09,2.39,-2.92,1000,1021.16,1001.74,1000,22.22,0,3.9
36645539,22.08,-0.89,2.32,0.04,0.02,1,0.02,-0.03,-0.06,0.01,0.04,1,0.03,-0.02,-0.08,0,0.62,-0.82,-0.09,2.39,-2.92,1000,1021.16,1001.74,1000,23.5,0,3.9
36646871,22.08,-0.89,2.32,0.04,0.02,1,0.08,0.03,-0.06,0.01,0.04,1,0.03,-0.02,-0.08,0,0.62,-0.82,-0.09,2.39,-2.92,1000,1021.16,1001.74,1000,23.5,0,3.87
36675106,22.09,-0.89,2.32,0.04,0.02,1,0.08,-0.03,-0.06,0.01,0.04,1,0.03,-0.02,-0.08,0,0.62,-0.82,-0.09,2.39,-2.92,1000,1021.16,1001.74,1000,23.5,0,3.92
36676394,22.09,-0.89,2.32,0.04,0.02,1,0.02,0.03,-0.06,0.01,0.04,1,0.03,-0.02,-0.08,0,0.62,-0.82,-0.09,2.39,-2.92,1000,1021.16,1001.74,1000,23.5,0,3.9
36678524,22.09,-0.89,2.32,0.04,0.02,1,0.02,-0.03,-0.06,0.01,0.04,1,0.03,-0.02,-0.08,0,0.62,-0.82,-0.09,2.39,-2.92,1000,1021.16,1001.73,1000,23.5,0,3.91
36692762,22.09,-0.89,2.32,0.04,0.02,1,0.02,-0.03,-0.06,0.01,0.04,1,0.03,-0.02,-0.08,0,0.62,-0.82,-0.09,2.39,-2.92,1000,1021.16,1001.73,1000,21.71,0,3.91
36706995,22.08,-0.89,2.32,0.04,0.02,1,0.08,0.03,-0.06,0.01,0.04,1,0.03,-0.02,-0.08,0,0.62,-0.82,-0.09,2.39,-2.92,1000,1021.16,1001.73,1000,20.88,0,3.85
36713944,22.08,-0.89,2.32,0.04,0.02,1,0.02,-0.03,-0.06,0.01,0.04,1,0.03,-0.02,-0.08,0,0.62,-0.82,-0.09,2.39,-2.92,1000,1021.16,1001.73,1000,22.61,0,3.91
36729965,22.08,-0.89,2.32,0.04,0.02,1,0.02,-0.03,0,0.01,0.04,1,0.03,-0.02,-0.08,0,0.62,-0.82,-0.09,2.39,-2.92,1000,1021.17,1001.73,1000,22.41,0,3.91
36735112,22.09,-0.89,2.32,0.04,0.02,1,0.02,-0.03,-0.06,0.01,0.04,1,0.03,-0.02,-0.08,0,0.62,-0.82,-0.09,2.39,-2.92,1000,1021.17,1001.73,1000,23.33,0,3.91
36738384,22.09,-0.89,2.32,0.04,0.01,1,0.02,-0.09,-0.06,0.01,0.04,1,0.03,-0.02,-0.08,0,0.62,-0.82,-0.09,2.39,-2.92,1000,1021.17,1001.73,1000,23.33,0,3.88
36742006,22.09,-0.89,2.32,0.04,0.02,1,-0.04,-0.03,-0.12,0.01,0.04,1,0.03,-0.02,-0.08,0,0.62,-0.82,-0.09,2.39,-2.92,1000,1021.17,1001.73,1000,20.41,0,3.91
36743701,22.08,-0.89,2.32,0.04,0.02,1,0.02,-0.03,-0.12,0.01,0.04,1,0.03,-0.02,-0.08,0,0.62,-0.82,-0.09,2.39,-2.92,1000,1021.17,1001.73,1000,20.41,0,3.89
36745025,22.08,-0.89,2.32,0.04,0.02,1,0.02,0.03,-0.06,0.01,0.04,1,0.03,-0.02,-0.08,0,0.62,-0.82,-0.09,2.39,-2.92,1000,1021.17,1001.73,1000,20.41,0,3.91
36748497,22.08,-0.89,2.32,0.04,0.02,1,0.08,-0.09,-0.06,0.01,0.04,1,0.03,-0.02,-0.08,0,0.62,-0.82,-0.09,2.39,-2.92,1000,1021.17,1001.73,1000,22.4,0,3.91
36749697,22.08,-0.89,2.32,0.04,0.02,1,-0.04,-0.03,-0.06,0.01,0.04,1,0.03,-0.02,-0.08,0,0.62,-0.82,-0.09,2.39,-2.92,1000,1021.17,1001.73,1000,22.4,0,3.9
36750858,22.08,-0.89,2.32,0.04,0.02,1,-0.04,0.03,-0.12,0.01,0.04,1,0.03,-0.02,-0.08,0,0.62,-0.82,-0.09,2.39,-2.92,1000,1021.17,1001.73,1000,22.4,0,3.89
36751992,22.08,-0.89,2.32,0.04,0.02,1,-0.04,-0.03,-0.06,0.01,0.04,1,0.03,-0.02,-0.08,0,0.62,-0.82,-0.09,2.39,-2.92,1000,1021.17,1001.73,1000,22.4,0,3.9
36755423,22.08,-0.89,2.32,0.04,0.02,1,0.02,0.03,-0.06,0.01,0.04,1,0.03,-0.02,-0.08,0,0.62,-0.82,-0.09,2.39,-2.92,1000,1021.17,1001.73,1000,22.23,0,3.9
36756612,22.08,-0.89,2.32,0.04,0.02,1,0.02,0.03,-0.06,0.01,0.04,1,0.03,-0.02,-0.08,0,0.62,-0.82,-0.09,2.39,-2.92,1000,1021.17,1001.72,1000,22.23,0,3.9
36757783,22.08,-0.89,2.32,0.04,0.02,1,-0.04,-0.03,0,0.01,0.04,1,0.03,-0.02,-0.08,0,0.62,-0.82,-0.09,2.39,-2.92,1000,1021.17,1001.72,1000,22.23,0,3.9
36758950,22.08,-0.89,2.32,0.04,0.02,1,0.08,-0.03,-0.06,0.01,0.04,1,0.03,-0.02,-0.08,0,0.62,-0.82,-0.09,2.39,-2.92,1000,1021.17,1001.72,1000,22.23,0,3.91
36762386,22.08,-0.89,2.32,0.04,0.02,1,-0.04,-0.03,-0.06,0.01,0.04,1,0.03,-0.02,-0.08,0,0.62,-0.82,-0.09,2.39,-2.92,1000,1021.18,1001.72,1000,19.9,0,3.91
36763576,22.08,-0.89,2.32,0.04,0.02,1,0.08,-0.09,0.06,0.01,0.04,1,0.03,-0.02,-0.08,0,0.62,-0.82,-0.09,2.39,-2.92,1000,1021.18,1001.72,1000,19.9,0,3.9
36764720,22.08,-0.89,2.32,0.04,0.02,1,0.02,-0.03,0,0.01,0.04,1,0.03,-0.02,-0.08,0,0.62,-0.82,-0.09,2.39,-2.92,1000,1021.18,1001.72,1000,19.9,0,3.9
36768255,22.08,-0.89,2.32,0.04,0.02,1,0.02,-0.03,0,0.01,0.04,1,0.03,-0.02,-0.08,0,0.62,-0.82,-0.09,2.39,-2.92,1000,1021.18,1001.72,1000,21.83,0,3.91
36769461,22.08,-0.89,2.32,0.04,0.02,1,0.02,0.03,0.06,0.01,0.04,1,0.03,-0.02,-0.08,0,0.62,-0.82,-0.09,2.39,-2.92,1000,1021.18,1001.72,1000,21.83,0,3.9
36770596,22.08,-0.89,2.32,0.04,0.02,1,-0.04,-0.03,-0.06,0.01,0.04,1,0.03,-0.01,-0.08,0,0.62,-0.82,-0.09,2.39,-2.92,1000,1021.18,1001.72,1000,21.83,0,3.9
36771791,22.08,-0.89,2.32,0.04,0.02,1,-0.04,-0.03,-0.06,0.01,0.04,1,0.03,-0.01,-0.08,0,0.62,-0.82,-0.09,2.39,-2.92,1000,1021.18,1001.72,1000,21.83,0,3.9
36775269,22.08,-0.89,2.32,0.04,0.02,1,-0.04,-0.03,-0.06,0.01,0.04,1,0.03,-0.01,-0.08,0,0.62,-0.82,-0.09,2.39,-2.92,1000,1021.18,1001.72,1000,22.82,0,3.81
36776471,22.08,-0.89,2.32,0.04,0.02,1,0.02,0.03,-0.06,0.01,0.04,1,0.03,-0.01,-0.08,0,0.62,-0.82,-0.09,2.39,-2.92,1000,1021.18,1001.72,1000,22.82,0,3.9
36777617,22.08,-0.89,2.32,0.03,0.02,1,0.08,-0.03,-0.06,0.01,0.04,1,0.03,-0.01,-0.08,0,0.62,-0.82,-0.09,2.39,-2.92,1000,1021.18,1001.72,1000,22.82,0,3.9
36781090,22.08,-0.89,2.32,0.04,0.02,1,0.02,0.03,-0.12,0.01,0.04,1,0.03,-0.01,-0.08,0,0.62,-0.82,-0.09,2.39,-2.92,1000,1021.18,1001.72,1000,22.13,0,3.91
36782307,22.08,-0.89,2.32,0.04,0.02,1,0.08,-0.03,-0.06,0.01,0.04,1,0.03,-0.01,-0.08,0,0.62,-0.82,-0.09,2.39,-2.92,1000,1021.18,1001.72,1000,22.13,0,3.9
36783433,22.08,-0.89,2.32,0.04,0.02,1,0.08,0.03,-0.06,0.01,0.04,1,0.03,-0.01,-0.08,0,0.62,-0.82,-0.1,2.39,-2.92,1000,1021.18,1001.71,1000,22.13,0,3.91
36786856,22.08,-0.89,2.32,0.04,0.02,1,0.08,-0.03,0,0.01,0.04,1,0.03,-0.01,-0.08,0,0.62,-0.82,-0.1,2.39,-2.92,1000,1021.19,1001.71,1000,22.13,0,3.92
36788068,22.08,-0.89,2.32,0.04,0.02,1,0.02,0.03,-0.06,0.01,0.04,1,0.03,-0.01,-0.08,0,0.62,-0.82,-0.1,2.39,-2.92,1000,1021.19,1001.71,1000,22.13,0,3.91
36789235,22.08,-0.89,2.32,0.04,0.02,1,0.08,-0.03,-0.06,0.01,0.04,1,0.03,-0.01,-0.08,0,0.62,-0.82,-0.1,2.39,-2.92,1000,1021.19,1001.71,1000,22.13,0,3.9
36792665,22.08,-0.89,2.32,0.04,0.02,1,0.08,0.03,-0.06,0.01,0.04,1,0.03,-0.01,-0.08,0,0.62,-0.82,-0.1,2.39,-2.92,1000,1021.19,1001.71,1000,20.53,0,3.9
36793882,22.08,-0.89,2.32,0.04,0.02,1,-0.04,-0.03,0.06,0.01,0.04,1,0.03,-0.01,-0.08,0,0.62,-0.82,-0.1,2.39,-2.92,1000,1021.19,1001.71,1000,20.53,0,3.9
36795053,22.08,-0.89,2.32,0.04,0.02,1,-0.04,-0.03,-0.06,0.01,0.04,1,0.03,-0.01,-0.08,0,0.62,-0.82,-0.1,2.39,-2.92,1000,1021.19,1001.71,1000,20.53,0,3.9
36798506,22.08,-0.89,2.32,0.04,0.02,1,0.02,-0.03,0,0.01,0.04,1,0.03,-0.01,-0.08,0,0.62,-0.82,-0.1,2.39,-2.92,1000,1021.19,1001.71,1000,21.63,0,3.9
36799759,22.08,-0.89,2.32,0.04,0.02,1,-0.04,-0.03,-0.06,0.01,0.04,1,0.03,-0.01,-0.08,0,0.62,-0.82,-0.1,2.39,-2.92,1000,1021.19,1001.71,1000,21.63,0,3.9
36800961,22.08,-0.89,2.32,0.04,0.02,1,-0.04,-0.03,-0.06,0.01,0.04,1,0.03,-0.01,-0.08,0,0.62,-0.82,-0.1,2.39,-2.92,1000,1021.19,1001.71,1000,21.63,0,3.9
36804428,22.08,-0.89,2.32,0.04,0.02,1,0.08,0.03,-0.06,0.01,0.04,1,0.03,-0.01,-0.07,0,0.62,-0.82,-0.1,2.39,-2.92,1000,1021.19,1001.71,1000,22.75,0,3.91
36805692,22.08,-0.89,2.32,0.03,0.02,1,-0.04,-0.03,-0.06,0.01,0.04,1,0.03,-0.01,-0.07,0,0.62,-0.82,-0.1,2.39,-2.92,1000,1021.19,1001.71,1000,22.75,0,3.9
36807097,22.08,-0.89,2.32,0.03,0.02,1,0.02,0.03,-0.06,0.01,0.04,1,0.03,-0.01,-0.07,0,0.62,-0.82,-0.1,2.39,-2.92,1000,1021.19,1001.71,1000,22.75,0,3.9
36812359,22.08,-0.89,2.32,0.04,0.02,1,0.02,-0.03,-0.06,0.01,0.04,1,0.03,-0.01,-0.07,0,0.62,-0.82,-0.1,2.39,-2.92,1000,1021.19,1001.71,1000,23.53,0,3.91
36815578,22.08,-0.89,2.32,0.04,0.02,1,0.08,0.03,-0.06,0.01,0.04,1,0.03,-0.01,-0.07,0,0.62,-0.82,-0.1,2.39,-2.92,1000,1021.2,1001.7,1000,23.53,0,3.9
36831654,22.08,-0.89,2.32,0.04,0.01,1,-0.04,-0.03,0,0.01,0.04,1,0.03,-0.01,-0.07,0,0.62,-0.82,-0.1,2.39,-2.92,1000,1021.2,1001.7,1000,23.12,0,3.91
36836929,22.08,-0.89,2.32,0.04,0.02,1,-0.04,-0.03,0,0.01,0.04,1,0.03,-0.01,-0.07,0,0.62,-0.82,-0.1,2.39,-2.92,1000,1021.2,1001.7,1000,22.87,0,3.91
36840442,22.08,-0.89,2.32,0.04,0.02,1,0.02,-0.03,-0.06,0.01,0.04,1,0.03,-0.01,-0.07,0,0.62,-0.82,-0.1,2.39,-2.92,1000,1021.2,1001.7,1000,23.09,0,3.91
36841575,22.08,-0.89,2.32,0.04,0.02,1,0.08,0.03,-0.06,0.01,0.04,1,0.03,-0.01,-0.07,0,0.62,-0.82,-0.1,2.39,-2.92,1000,1021.2,1001.7,1000,23.09,0,3.9
36842727,22.08,-0.89,2.32,0.04,0.02,1,0.08,0.03,-0.12,0.01,0.04,1,0.03,-0.01,-0.07,0,0.62,-0.82,-0.1,2.39,-2.92,1000,1021.2,1001.7,1000,23.09,0,3.88
36846320,22.08,-0.89,2.32,0.04,0.02,1,-0.04,-0.03,-0.06,0.01,0.04,1,0.03,-0.01,-0.07,0,0.62,-0.82,-0.1,2.39,-2.92,1000,1021.2,1001.7,1000,23.09,0,3.9
36847503,22.08,-0.89,2.32,0.04,0.02,1,0.08,0.03,-0.06,0.01,0.04,1,0.03,-0.01,-0.07,0,0.62,-0.82,-0.1,2.39,-2.92,1000,1021.2,1001.7,1000,23.09,0,3.91
36848649,22.08,-0.89,2.32,0.04,0.02,1,0.08,-0.03,0,0.01,0.04,1,0.03,-0.01,-0.07,0,0.62,-0.82,-0.1,2.39,-2.92,1000,1021.2,1001.7,1000,23.09,0,3.9
36852329,22.08,-0.89,2.32,0.04,0.02,1,0.02,-0.03,-0.06,0.01,0.04,1,0.03,-0.01,-0.07,0,0.62,-0.82,-0.1,2.39,-2.92,1000,1021.2,1001.7,1000,20.96,0,3.9
36853505,22.08,-0.89,2.32,0.04,0.02,1,-0.04,-0.09,-0.06,0.01,0.04,1,0.03,-0.01,-0.07,0,0.62,-0.82,-0.1,2.39,-2.92,1000,1021.2,1001.7,1000,20.96,0,3.9
36854987,22.08,-0.89,2.32,0.04,0.02,1,0.02,-0.03,-0.06,0.01,0.04,1,0.03,-0.01,-0.07,0,0.62,-0.82,-0.1,2.39,-2.92,1000,1021.2,1001.7,1000,20.96,0,3.9
36858463,22.08,-0.89,2.32,0.04,0.02,1,-0.04,-0.03,-0.06,0.01,0.04,1,0.03,-0.01,-0.07,0,0.62,-0.82,-0.1,2.39,-2.92,1000,1021.21,1001.7,1000,23.3,0,3.91
36859945,22.08,-0.89,2.32,0.04,0.02,1,0.02,-0.09,0,0.01,0.04,1,0.03,-0.01,-0.07,0,0.62,-0.82,-0.1,2.39,-2.92,1000,1021.21,1001.69,1000,23.3,0,3.9
36861128,22.08,-0.89,2.32,0.04,0.02,1,0.02,-0.09,-0.06,0.01,0.04,1,0.03,-0.01,-0.07,0,0.62,-0.82,-0.1,2.39,-2.92,1000,1021.21,1001.69,1000,23.3,0,3.9
36864706,22.08,-0.89,2.32,0.04,0.02,1,0.02,-0.03,-0.06,0.01,0.04,1,0.03,-0.01,-0.07,0,0.62,-0.82,-0.1,2.39,-2.92,1000,1021.21,1001.69,1000,21.68,0,3.91
36865908,22.08,-0.89,2.32,0.04,0.02,1,-0.04,-0.03,0.06,0.01,0.04,1,0.03,-0.01,-0.07,0,0.62,-0.82,-0.1,2.39,-2.92,1000,1021.21,1001.69,1000,21.68,0,3.92
36867070,22.08,-0.89,2.32,0.04,0.02,1,-0.04,-0.03,0,0.01,0.04,1,0.03,-0.01,-0.07,0,0.62,-0.82,-0.1,2.39,-2.92,1000,1021.21,1001.69,1000,21.68,0,3.9
36870558,22.08,-0.89,2.32,0.04,0.02,1,0.08,-0.03,-0.06,0.01,0.04,1,0.03,-0.01,-0.07,0,0.62,-0.82,-0.1,2.39,-2.92,1000,1021.21,1001.69,1000,21.65,0,3.91
36871727,22.08,-0.89,2.32,0.04,0.02,1,0.02,0.03,-0.06,0.01,0.04,1,0.03,-0.01,-0.07,0,0.62,-0.82,-0.1,2.39,-2.92,1000,1021.21,1001.69,1000,21.65,0,3.9
36872948,22.08,-0.89,2.32,0.04,0.02,1,0.02,-0.03,-0.12,0.01,0.04,1,0.03,-0.01,-0.07,0,0.62,-0.82,-0.1,2.39,-2.92,1000,1021.21,1001.69,1000,21.65,0,3.9
36876447,22.08,-0.89,2.32,0.04,0.02,1,0.02,0.03,0,0.01,0.04,1,0.03,-0.01,-0.07,0,0.62,-0.82,-0.1,2.39,-2.92,1000,1021.21,1001.69,1000,20.15,0,3.88
36877681,22.08,-0.89,2.32,0.04,0.02,1,0.08,0.03,-0.06,0.01,0.04,1,0.03,-0.01,-0.07,0,0.62,-0.82,-0.1,2.39,-2.92,1000,1021.21,1001.69,1000,20.15,0,3.91
36878889,22.08,-0.89,2.32,0.04,0.02,1,0.08,0.03,-0.06,0.01,0.04,1,0.03,-0.01,-0.07,0,0.62,-0.82,-0.1,2.39,-2.92,1000,1021.21,1001.69,1000,20.15,0,3.91
36880057,22.08,-0.89,2.32,0.04,0.02,1,0.02,-0.03,0,0.01,0.04,1,0.03,-0.01,-0.07,0,0.62,-0.82,-0.1,2.39,-2.92,1000,1021.21,1001.69,1000,20.15,0,3.88
36883526,22.08,-0.89,2.32,0.04,0.02,1,0.02,-0.03,-0.06,0.01,0.04,1,0.03,-0.01,-0.07,0,0.62,-0.82,-0.1,2.39,-2.92,1000,1021.21,1001.69,1000,21.31,0,3.94
36884739,22.08,-0.89,2.32,0.04,0.02,1,0.02,-0.03,-0.06,0.01,0.04,1,0.03,-0.01,-0.07,0,0.62,-0.82,-0.1,2.39,-2.92,1000,1021.21,1001.69,1000,21.31,0,3.9
36885951,22.07,-0.89,2.32,0.03,0.02,1,0.02,-0.03,-0.06,0.01,0.04,1,0.03,-0.01,-0.07,0,0.62,-0.82,-0.1,2.39,-2.92,1000,1021.21,1001.69,1000,21.31,0,3.9
36889441,22.07,-0.89,2.32,0.03,0.02,1,0.02,0.03,0,0.01,0.04,1,0.03,-0.01,-0.07,0,0.62,-0.82,-0.1,2.39,-2.92,1000,1021.21,1001.69,1000,20.92,0,3.91
36890584,22.07,-0.89,2.32,0.04,0.02,1,-0.04,-0.03,-0.06,0.01,0.04,1,0.03,-0.01,-0.07,0,0.62,-0.82,-0.1,2.39,-2.92,1000,1021.21,1001.69,1000,20.92,0,3.92
36891817,22.07,-0.89,2.32,0.04,0.02,1,-0.04,-0.03,-0.12,0.01,0.04,1,0.03,-0.01,-0.07,0,0.62,-0.82,-0.1,2.39,-2.92,1000,1021.21,1001.69,1000,20.92,0,3.9
36892994,22.07,-0.89,2.32,0.04,0.02,1,-0.04,-0.03,-0.12,0.01,0.04,1,0.03,-0.01,-0.07,0,0.62,-0.82,-0.1,2.39,-2.92,1000,1021.21,1001.69,1000,20.92,0,3.93
36896475,22.07,-0.89,2.32,0.04,0.02,1,0.02,-0.03,-0.06,0.01,0.04,1,0.03,-0.01,-0.07,0,0.62,-0.82,-0.1,2.39,-2.92,1000,1021.21,1001.69,1000,21.39,0,3.91
36897674,22.07,-0.89,2.32,0.04,0.02,1,0.02,-0.03,-0.06,0.01,0.04,1,0.03,-0.01,-0.07,0,0.62,-0.82,-0.1,2.39,-2.92,1000,1021.21,1001.69,1000,21.39,0,3.91
36898849,22.07,-0.89,2.32,0.04,0.02,1,0.08,-0.03,0,0.01,0.04,1,0.03,-0.01,-0.07,0,0.62,-0.82,-0.1,2.39,-2.92,1000,1021.21,1001.69,1000,21.39,0,3.9
36902409,22.07,-0.89,2.32,0.04,0.02,1,-0.04,-0.03,-0.06,0.01,0.04,1,0.03,-0.01,-0.07,0,0.62,-0.82,-0.1,2.39,-2.92,1000,1021.21,1001.69,1000,21.78,0,3.91
36903570,22.07,-0.89,2.32,0.04,0.02,1,0.02,-0.03,-0.06,0.01,0.04,1,0.03,-0.01,-0.07,0,0.62,-0.82,-0.1,2.39,-2.92,1000,1021.21,1001.69,1000,21.78,0,3.91
36904729,22.07,-0.89,2.32,0.04,0.02,1,0.02,-0.03,-0.06,0.01,0.04,1,0.03,-0.01,-0.07,0,0.62,-0.82,-0.1,2.39,-2.92,1000,1021.21,1001.69,1000,21.78,0,3.91
36905867,22.07,-0.89,2.32,0.04,0.02,1,0.08,-0.03,-0.06,0.01,0.04,1,0.03,-0.01,-0.07,0,0.62,-0.82,-0.1,2.39,-2.92,1000,1021.21,1001.69,1000,21.78,0,3.9
36909533,22.07,-0.89,2.32,0.04,0.02,1,-0.04,0.03,-0.06,0.01,0.04,1,0.03,-0.01,-0.07,0,0.62,-0.82,-0.1,2.39,-2.92,1000,1021.21,1001.69,1000,22.24,0,3.9
36912958,22.07,-0.89,2.32,0.03,0.02,1,0.02,-0.03,-0.06,0.01,0.04,1,0.03,-0.01,-0.07,0,0.62,-0.82,-0.1,2.39,-2.92,1000,1021.21,1001.69,1000,22.24,0,3.91
36917976,22.07,-0.89,2.32,0.04,0.02,1,0.08,-0.03,0,0.01,0.04,1,0.03,-0.01,-0.07,0,0.62,-0.82,-0.1,2.39,-2.92,1000,1021.21,1001.69,1000,22,0,3.9
36921277,22.07,-0.89,2.32,0.04,0.02,1,0.08,-0.09,-0.12,0.01,0.04,1,0.03,-0.01,-0.07,0,0.62,-0.82,-0.1,2.39,-2.92,1000,1021.21,1001.69,1000,22,0,3.91
36937429,22.07,-0.89,2.32,0.04,0.02,1,0.02,-0.03,-0.06,0.01,0.04,1,0.03,-0.01,-0.07,0,0.62,-0.82,-0.1,2.39,-2.92,1000,1021.21,1001.69,1000,22.99,0,3.91
36941023,22.07,-0.89,2.32,0.04,0.02,1,0.02,-0.09,0,0.01,0.04,1,0.03,-0.01,-0.07,0,0.62,-0.82,-0.1,2.39,-2.92,1000,1021.21,1001.69,1000,22.03,0,3.91
36942207,22.07,-0.89,2.32,0.04,0.02,1,0.02,-0.09,0,0.01,0.04,1,0.03,-0.01,-0.07,0,0.62,-0.82,-0.1,2.39,-2.92,1000,1021.21,1001.69,1000,22.03,0,3.91
36943347,22.07,-0.89,2.32,0.04,0.02,1,-0.04,-0.03,-0.06,0.01,0.04,1,0.03,-0.01,-0.07,0,0.62,-0.82,-0.1,2.39,-2.92,1000,1021.21,1001.69,1000,22.03,0,3.91
36946809,22.07,-0.89,2.32,0.04,0.02,1,-0.04,0.03,0,0.01,0.04,1,0.03,-0.01,-0.07,0,0.62,-0.82,-0.1,2.39,-2.92,1000,1021.21,1001.69,1000,23.15,0,3.87
36948017,22.07,-0.89,2.32,0.04,0.02,1,-0.04,0.03,0,0.01,0.04,1,0.03,-0.01,-0.07,0,0.62,-0.82,-0.1,2.39,-2.92,1000,1021.21,1001.69,1000,23.15,0,3.9
36949188,22.07,-0.89,2.32,0.04,0.02,1,0.02,-0.03,-0.06,0.01,0.04,1,0.03,-0.01,-0.07,0,0.62,-0.82,-0.1,2.39,-2.92,1000,1021.21,1001.69,1000,23.15,0,3.91
36952853,22.07,-0.89,2.32,0.04,0.02,1,0.02,0.09,0,0.01,0.04,1,0.03,-0.01,-0.07,0,0.62,-0.82,-0.1,2.39,-2.92,1000,1021.21,1001.69,1000,22.96,0,3.91
36954350,22.07,-0.89,2.32,0.04,0.02,1,0.08,0.03,-0.12,0.01,0.04,1,0.03,-0.01,-0.07,0,0.62,-0.82,-0.1,2.39,-2.92,1000,1021.21,1001.69,1000,22.96,0,3.87
36955604,22.07,-0.89,2.32,0.04,0.02,1,0.02,0.03,-0.06,0.01,0.04,1,0.03,-0.01,-0.07,0,0.62,-0.82,-0.1,2.39,-2.92,1000,1021.21,1001.69,1000,22.96,0,3.9
36959134,22.07,-0.89,2.32,0.04,0.02,1,0.02,-0.03,-0.06,0.01,0.04,1,0.03,-0.01,-0.07,0,0.62,-0.82,-0.1,2.39,-2.92,1000,1021.21,1001.69,1000,22.36,0,3.91
36960544,22.07,-0.89,2.32,0.04,0.02,1,0.02,-0.09,-0.06,0.01,0.04,1,0.03,-0.01,-0.07,0,0.62,-0.82,-0.1,2.39,-2.92,1000,1021.21,1001.69,1000,22.36,0,3.91
36961700,22.07,-0.89,2.32,0.03,0.02,1,0.02,-0.03,-0.06,0.01,0.04,1,0.03,-0.01,-0.07,0,0.62,-0.82,-0.1,2.39,-2.92,1000,1021.21,1001.69,1000,22.36,0,3.91
36965187,22.07,-0.89,2.32,0.04,0.02,1,0.08,0.03,-0.06,0.01,0.04,1,0.03,-0.01,-0.07,0,0.62,-0.82,-0.1,2.39,-2.92,1000,1021.21,1001.69,1000,21.96,0,3.87
36966482,22.07,-0.89,2.32,0.04,0.02,1,-0.04,0.03,-0.06,0.01,0.04,1,0.03,-0.01,-0.07,0,0.62,-0.82,-0.1,2.39,-2.92,1000,1021.21,1001.69,1000,21.96,0,3.91
36967648,22.07,-0.89,2.32,0.04,0.02,1,0.02,-0.03,-0.06,0.01,0.04,1,0.03,-0.01,-0.07,0,0.62,-0.82,-0.1,2.39,-2.92,1000,1021.21,1001.69,1000,21.96,0,3.9
36971120,22.07,-0.89,2.32,0.04,0.02,1,0.08,-0.03,-0.06,0.01,0.04,1,0.03,-0.01,-0.07,0,0.62,-0.82,-0.1,2.39,-2.92,1000,1021.21,1001.69,1000,22.75,0,3.92
36972390,22.07,-0.89,2.32,0.04,0.02,1,-0.04,-0.03,0,0.01,0.04,1,0.03,-0.01,-0.07,0,0.62,-0.82,-0.1,2.39,-2.92,1000,1021.21,1001.69,1000,22.75,0,3.9
36973531,22.07,-0.89,2.32,0.04,0.02,1,-0.04,-0.09,-0.06,0.01,0.04,1,0.03,-0.01,-0.07,0,0.62,-0.82,-0.1,2.39,-2.92,1000,1021.21,1001.69,1000,22.75,0,3.91
36977002,22.07,-0.89,2.32,0.04,0.02,1,-0.04,-0.03,-0.06,0.01,0.04,1,0.03,-0.01,-0.07,0,0.62,-0.82,-0.1,2.39,-2.92,1000,1021.21,1001.69,1000,19.57,0,3.91
36978304,22.07,-0.89,2.32,0.04,0.02,1,0.02,-0.03,0,0.01,0.04,1,0.03,-0.01,-0.07,0,0.62,-0.82,-0.1,2.39,-2.92,1000,1021.21,1001.69,1000,19.57,0,3.91
36979459,22.07,-0.89,2.32,0.04,0.02,1,0.02,0.03,0,0.01,0.04,1,0.03,-0.01,-0.07,0,0.62,-0.82,-0.1,2.39,-2.92,1000,1021.21,1001.69,1000,19.57,0,3.91
36982928,22.07,-0.89,2.32,0.04,0.02,1,0.08,0.03,-0.06,0.01,0.04,1,0.03,-0.01,-0.07,0,0.62,-0.82,-0.1,2.39,-2.92,1000,1021.21,1001.69,1000,21.92,0,3.9
36984245,22.07,-0.89,2.32,0.04,0.02,1,0.08,-0.03,-0.06,0.01,0.04,1,0.03,-0.01,-0.07,0,0.62,-0.82,-0.1,2.39,-2.92,1000,1021.21,1001.69,1000,21.92,0,3.91
36985395,22.07,-0.89,2.32,0.04,0.02,1,0.08,-0.09,0,0.01,0.04,1,0.03,-0.01,-0.07,0,0.62,-0.82,-0.1,2.39,-2.92,1000,1021.21,1001.69,1000,21.92,0,3.91
36988845,22.07,-0.89,2.32,0.04,0.02,1,-0.04,0.03,-0.06,0.01,0.04,1,0.03,-0.01,-0.07,0,0.62,-0.82,-0.1,2.39,-2.92,1000,1021.21,1001.69,1000,21.92,0,3.91
36990149,22.07,-0.89,2.32,0.04,0.02,1,0.08,-0.03,0,0.01,0.04,1,0.03,-0.01,-0.07,0,0.62,-0.82,-0.1,2.39,-2.92,1000,1021.21,1001.69,1000,21.92,0,3.91
36991321,22.07,-0.89,2.32,0.04,0.02,1,0.08,-0.03,-0.06,0.01,0.04,1,0.03,-0.01,-0.07,0,0.62,-0.82,-0.1,2.39,-2.92,1000,1021.21,1001.69,1000,21.92,0,3.9
36994771,22.07,-0.89,2.32,0.04,0.02,1,0.02,-0.03,-0.06,0.01,0.04,1,0.03,-0.01,-0.07,0,0.62,-0.82,-0.1,2.39,-2.92,1000,1021.21,1001.69,1000,22.06,0,3.91
36996071,22.07,-0.89,2.32,0.04,0.02,1,0.02,-0.03,-0.06,0.01,0.04,1,0.03,-0.01,-0.07,0,0.62,-0.82,-0.1,2.39,-2.92,1000,1021.21,1001.69,1000,22.06,0,3.9
36997252,22.07,-0.89,2.32,0.04,0.02,1,0.02,-0.03,-0.06,0.01,0.04,1,0.03,-0.01,-0.07,0,0.62,-0.82,-0.1,2.39,-2.92,1000,1021.21,1001.69,1000,22.06,0,3.91
37000706,22.07,-0.89,2.32,0.04,0.02,1,0.02,0.03,-0.06,0.01,0.04,1,0.03,-0.01,-0.07,0,0.62,-0.82,-0.1,2.39,-2.92,1000,1021.21,1001.69,1000,22.02,0,3.92
37001995,22.07,-0.89,2.32,0.04,0.02,1,0.02,0.03,-0.06,0.01,0.04,1,0.03,-0.01,-0.07,0,0.62,-0.82,-0.1,2.39,-2.92,1000,1021.21,1001.69,1000,22.02,0,3.9
37003176,22.07,-0.89,2.32,0.04,0.02,1,0.02,0.03,-0.12,0.01,0.04,1,0.03,-0.01,-0.07,0,0.62,-0.82,-0.1,2.39,-2.92,1000,1021.21,1001.69,1000,22.02,0,3.9
37006633,22.07,-0.89,2.32,0.04,0.02,1,-0.04,-0.03,0,0.01,0.04,1,0.03,-0.01,-0.07,0,0.62,-0.82,-0.1,2.39,-2.92,1000,1021.21,1001.69,1000,22.59,0,3.91
37007934,22.07,-0.89,2.32,0.04,0.02,1,0.02,-0.03,-0.06,0.01,0.04,1,0.03,-0.01,-0.07,0,0.62,-0.82,-0.1,2.39,-2.92,1000,1021.21,1001.69,1000,22.59,0,3.91
37009089,22.07,-0.89,2.32,0.04,0.02,1,0.02,-0.03,-0.12,0.01,0.04,1,0.03,-0.01,-0.07,0,0.62,-0.82,-0.1,2.39,-2.92,1000,1021.21,1001.69,1000,22.59,0,3.91
37012770,22.06,-0.89,2.32,0.03,0.02,1,0.08,0.03,-0.06,0.01,0.04,1,0.03,-0.01,-0.07,0,0.62,-0.82,-0.1,2.39,-2.92,1000,1021.21,1001.69,1000,21.72,0,3.9
37016190,22.06,-0.89,2.32,0.04,0.02,1,-0.04,-0.03,-0.06,0.01,0.04,1,0.03,-0.01,-0.07,0,0.62,-0.82,-0.1,2.39,-2.92,1000,1021.21,1001.69,1000,21.72,0,3.95
37021239,22.06,-0.89,2.32,0.04,0.02,1,-0.04,-0.03,-0.06,0.01,0.04,1,0.03,-0.01,-0.07,0,0.62,-0.82,-0.1,2.39,-2.92,1000,1021.21,1001.69,1000,21,0,3.91
37024524,22.06,-0.89,2.32,0.04,0.02,1,0.08,-0.03,-0.06,0.01,0.04,1,0.03,-0.01,-0.07,0,0.62,-0.82,-0.1,2.39,-2.92,1000,1021.21,1001.69,1000,21,0,3.91
37040553,22.06,-0.89,2.32,0.03,0.02,1,0.08,0.03,-0.06,0.01,0.04,1,0.03,-0.01,-0.07,0,0.62,-0.82,-0.1,2.39,-2.92,1000,1021.21,1001.69,1000,21.88,0,3.91
37045019,22.06,-0.89,2.32,0.04,0.02,1,0.08,-0.03,-0.06,0.01,0.04,1,0.03,-0.01,-0.07,0,0.62,-0.82,-0.1,2.39,-2.92,1000,1021.21,1001.69,1000,21.33,0,3.92
37046798,22.06,-0.89,2.32,0.04,0.02,1,0.02,-0.03,-0.06,0.01,0.04,1,0.03,-0.01,-0.07,0,0.62,-0.82,-0.1,2.39,-2.92,1000,1038.71,1019.19,1015.01,21.33,4.46,3.91
37050379,22.06,-0.89,2.32,0.04,0.02,1,0.02,0.03,-0.06,0.01,0.04,1,0.03,-0.01,-0.07,0,0.62,-0.82,-0.1,2.39,-2.92,1000,1038.71,1019.19,1015.01,22.02,4.46,3.91
37051574,22.06,-0.89,2.32,0.04,0.02,1,0.14,0.03,-0.06,0.01,0.04,1,0.03,-0.01,-0.07,0,0.62,-0.82,-0.1,2.39,-2.92,1000,1038.71,1019.19,1015.01,22.02,4.46,3.9
37052734,22.06,-0.89,2.32,0.04,0.02,1,0.08,0.03,-0.06,0.01,0.04,1,0.03,-0.01,-0.07,0,0.62,-0.82,-0.1,2.39,-2.92,1000,1038.71,1019.19,1015.01,22.02,4.46,3.93
37056246,22.06,-0.89,2.32,0.04,0.02,1,0.02,-0.03,-0.06,0.01,0.04,1,0.03,-0.01,-0.07,0,0.62,-0.82,-0.1,2.39,-2.92,1000,1038.71,1019.19,1015.01,22.73,4.46,3.91
37057434,22.06,-0.89,2.32,0.04,0.02,1,0.08,0.03,-0.06,0.01,0.04,1,0.03,-0.01,-0.07,0,0.62,-0.82,-0.1,2.39,-2.92,1000,1038.71,1019.19,1015.01,22.73,4.46,3.9
37058574,22.06,-0.89,2.32,0.04,0.02,1,0.08,0.03,0,0.01,0.04,1,0.03,-0.01,-0.07,0,0.62,-0.82,-0.1,2.39,-2.92,1000,1038.71,1019.19,1015.01,22.73,4.46,3.93
37062077,22.06,-0.89,2.32,0.04,0.02,1,0.02,0.03,-0.12,0.01,0.04,1,0.03,-0.01,-0.07,0,0.62,-0.82,-0.1,2.39,-2.92,1000,1038.71,1019.19,1015.01,23.57,4.46,3.91
37063270,22.06,-0.89,2.32,0.04,0.02,1,0.14,-0.03,-0.06,0.01,0.04,1,0.03,-0.01,-0.07,0,0.62,-0.82,-0.1,2.39,-2.92,1000,1038.71,1019.19,1015.01,23.57,4.46,3.91
37064410,22.06,-0.89,2.32,0.04,0.02,1,0.02,-0.03,-0.06,0.01,0.04,1,0.03,-0.01,-0.07,0,0.62,-0.82,-0.1,2.39,-2.92,1000,1038.71,1019.19,1015.01,23.57,4.46,3.91
37067872,22.06,-0.89,2.32,0.04,0.02,1,0.02,0.03,-0.06,0.01,0.04,1,0.03,-0.01,-0.07,0,0.62,-0.82,-0.1,2.39,-2.92,1000,1038.71,1019.19,1015.01,22.5,4.46,3.91
37069063,22.06,-0.89,2.32,0.04,0.02,1,0.02,-0.09,0,0.01,0.04,1,0.03,-0.01,-0.07,0,0.62,-0.82,-0.1,2.39,-2.92,1000,1038.71,1019.19,1015.01,22.5,4.46,3.9
37072473,22.06,-0.89,2.32,0.04,0.02,1,0.02,-0.03,0,0.01,0.04,1,0.03,-0.01,-0.07,0,0.62,-0.82,-0.1,2.39,-2.92,1000,1038.71,1019.19,1015.01,22.5,4.46,3.91
37076295,22.06,-0.89,2.32,0.04,0.02,1,-0.04,0.03,-0.12,0.01,0.04,1,0.03,-0.01,-0.07,0,0.62,-0.82,-0.1,2.39,-2.92,1000,1038.71,1019.19,1015.01,22.59,4.46,3.91
37077451,22.06,-0.89,2.32,0.04,0.02,1,0.02,0.03,-0.19,0.01,0.04,1,0.03,-0.01,-0.07,0,0.62,-0.82,-0.1,2.39,-2.92,1000,1038.71,1019.19,1015.01,22.59,4.46,3.91
37078881,22.06,-0.89,2.32,0.04,0.02,1,0.02,-0.03,-0.06,0.01,0.04,1,0.03,-0.01,-0.07,0,0.62,-0.82,-0.1,2.39,-2.92,1000,1038.71,1019.19,1015.01,22.59,4.46,3.9
37082378,22.06,-0.89,2.32,0.04,0.02,1,0.02,-0.03,-0.06,0.01,0.04,1,0.03,-0.01,-0.07,0,0.62,-0.82,-0.1,2.39,-2.92,1000,1038.71,1019.19,1015.01,20.95,4.46,3.91
37083810,22.06,-0.89,2.32,0.04,0.02,1,0.02,-0.03,-0.06,0.01,0.04,1,0.03,-0.01,-0.07,0,0.62,-0.82,-0.1,2.39,-2.92,1000,1038.71,1019.19,1015.01,20.95,4.46,3.92
37084973,22.06,-0.89,2.32,0.04,0.02,1,-0.04,-0.03,-0.06,0.01,0.04,1,0.03,-0.01,-0.07,0,0.62,-0.82,-0.1,2.39,-2.92,1000,1038.71,1019.19,1015.01,20.95,4.46,3.9
37088457,22.06,-0.89,2.32,0.04,0.02,1,0.02,0.03,-0.06,0.01,0.04,1,0.03,-0.01,-0.07,0,0.62,-0.82,-0.1,2.39,-2.92,1000,1038.71,1019.19,1015.01,22.08,4.46,3.91
37089709,22.06,-0.89,2.32,0.04,0.02,1,0.02,-0.09,-0.06,0.01,0.04,1,0.03,-0.01,-0.07,0,0.62,-0.82,-0.1,2.39,-2.92,1000,1038.71,1019.19,1015.01,22.08,4.46,3.9
37090907,22.06,-0.89,2.32,0.04,0.02,1,0.08,-0.09,-0.12,0.01,0.04,1,0.03,-0.01,-0.07,0,0.62,-0.82,-0.1,2.39,-2.92,1000,1038.71,1019.19,1015.01,22.08,4.46,3.92
37092057,22.06,-0.89,2.32,0.04,0.02,1,0.08,-0.09,-0.12,0.01,0.04,1,0.03,-0.01,-0.07,0,0.62,-0.82,-0.1,2.39,-2.92,1000,1038.71,1019.19,1015.01,22.08,4.46,3.91
37095559,22.06,-0.89,2.32,0.04,0.02,1,0.08,-0.03,-0.06,0.01,0.04,1,0.04,-0.01,-0.07,0,0.62,-0.82,-0.1,2.39,-2.92,1000,1038.71,1019.19,1015.01,22.68,4.46,3.91
37098830,22.06,-0.89,2.32,0.04,0.02,1,0.02,0.03,-0.06,0.01,0.04,1,0.04,-0.01,-0.07,0,0.62,-0.82,-0.1,2.39,-2.92,1000,1038.71,1019.19,1015.01,22.68,4.46,3.91
37102527,22.06,-0.89,2.32,0.04,0.02,1,0.08,-0.03,-0.06,0.01,0.04,1,0.04,-0.01,-0.07,0,0.62,-0.82,-0.1,2.39,-2.92,1000,1038.71,1019.19,1015.01,22.69,4.46,3.91
37104101,22.06,-0.89,2.32,0.04,0.02,1,0.08,-0.03,-0.06,0.01,0.04,1,0.04,-0.01,-0.07,0,0.62,-0.82,-0.1,2.39,-2.92,1000,1038.71,1019.19,1015.01,22.69,4.46,3.91
37107635,22.06,-0.89,2.32,0.04,0.02,1,0.08,-0.03,-0.06,0.01,0.04,1,0.04,-0.01,-0.07,0,0.62,-0.82,-0.1,2.39,-2.92,1000,1038.71,1019.19,1015.01,22.94,4.46,3.91
37108870,22.06,-0.89,2.32,0.04,0.02,1,0.08,-0.03,-0.06,0.01,0.04,1,0.04,-0.01,-0.07,0,0.62,-0.82,-0.1,2.39,-2.92,1000,1038.71,1019.19,1015.01,22.94,4.46,3.95
37110048,22.06,-0.89,2.32,0.04,0.02,1,0.08,-0.03,-0.06,0.01,0.04,1,0.04,-0.01,-0.07,0,0.62,-0.82,-0.1,2.39,-2.92,1000,1038.71,1019.19,1015.01,22.94,4.46,3.91
37113743,22.06,-0.89,2.32,0.04,0.02,1,0.08,-0.03,-0.06,0.01,0.04,1,0.04,-0.01,-0.07,0,0.62,-0.82,-0.1,2.39,-2.92,1000,1038.71,1019.19,1015.01,21.44,4.46,3.91
37117150,22.06,-0.89,2.32,0.04,0.02,1,0.02,-0.03,-0.06,0.01,0.04,1,0.04,-0.01,-0.07,0,0.62,-0.82,-0.1,2.39,-2.92,1000,1038.71,1019.2,1015.01,21.44,4.46,3.9
37122195,22.06,-0.89,2.32,0.04,0.02,1,0.02,0.03,-0.12,0.01,0.04,1,0.04,-0.01,-0.07,0,0.62,-0.82,-0.1,2.39,-2.92,1000,1038.71,1019.2,1015.01,19.89,4.46,3.91
37125491,22.05,-0.89,2.32,0.04,0.02,1,0.02,0.03,0,0.01,0.04,1,0.04,-0.01,-0.07,0,0.62,-0.82,-0.1,2.39,-2.92,1000,1038.71,1019.2,1015.01,19.89,4.46,3.91
37141538,22.05,-0.89,2.32,0.04,0.02,1,0.02,-0.03,-0.06,0.01,0.04,1,0.04,-0.01,-0.07,0,0.62,-0.82,-0.1,2.39,-2.92,1000,1038.71,1019.2,1015.01,22.11,4.46,3.91
37145141,22.05,-0.89,2.32,0.04,0.02,1,-0.04,-0.03,-0.06,0.01,0.04,1,0.04,-0.01,-0.07,0,0.62,-0.82,-0.1,2.39,-2.92,1000,1038.71,1019.2,1015.01,19.98,4.46,3.91
37146325,22.05,-0.89,2.32,0.04,0.02,1,0.02,-0.03,-0.06,0.01,0.04,1,0.04,-0.01,-0.07,0,0.62,-0.82,-0.1,2.39,-2.92,1000,1038.71,1019.2,1015.01,19.98,4.46,3.91
37147484,22.05,-0.89,2.32,0.04,0.02,1,0.02,-0.03,-0.06,0.01,0.04,1,0.04,-0.01,-0.07,0,0.62,-0.82,-0.1,2.39,-2.92,1000,1038.71,1019.2,1015,19.98,4.46,3.9
37150990,22.04,-0.89,2.32,0.04,0.02,1,0.02,0.03,0,0.01,0.04,1,0.04,-0.01,-0.07,0,0.62,-0.82,-0.1,2.39,-2.92,1000,1038.71,1019.2,1015,19.74,4.46,3.91
37152192,22.04,-0.89,2.32,0.04,0.02,1,0.02,0.03,-0.06,0.01,0.04,1,0.04,-0.01,-0.07,0,0.62,-0.82,-0.1,2.39,-2.92,1000,1038.71,1019.2,1015,19.74,4.46,3.9
37153352,22.04,-0.89,2.32,0.04,0.02,1,0.02,-0.03,0,0.01,0.04,1,0.04,-0.01,-0.07,0,0.62,-0.82,-0.1,2.39,-2.92,1000,1038.71,1019.2,1015,19.74,4.46,3.9
37156822,22.04,-0.89,2.32,0.04,0.02,1,-0.04,0.03,0,0.01,0.04,1,0.04,-0.01,-0.07,0,0.62,-0.82,-0.1,2.39,-2.92,1000,1038.71,1019.2,1015,21.48,4.46,3.96
37158032,22.04,-0.89,2.32,0.04,0.02,1,0.02,0.03,-0.12,0.01,0.04,1,0.04,-0.01,-0.07,0,0.62,-0.82,-0.1,2.39,-2.92,1000,1038.71,1019.2,1015,21.48,4.46,3.91
37159213,22.04,-0.89,2.32,0.04,0.02,1,0.02,-0.03,-0.06,0.01,0.04,1,0.04,-0.01,-0.07,0,0.62,-0.82,-0.1,2.39,-2.92,1000,1038.71,1019.2,1015,21.48,4.46,3.91
37162693,22.04,-0.89,2.32,0.04,0.02,1,0.02,-0.03,-0.06,0.01,0.04,1,0.04,-0.01,-0.07,0,0.62,-0.82,-0.1,2.39,-2.92,1000,1038.71,1019.2,1015,21.96,4.46,3.92
37163896,22.04,-0.89,2.32,0.04,0.02,1,0.02,-0.03,-0.06,0.01,0.04,1,0.04,-0.01,-0.07,0,0.62,-0.82,-0.1,2.39,-2.92,1000,1038.71,1019.2,1015,21.96,4.46,3.91
37165069,22.04,-0.89,2.32,0.04,0.02,1,0.02,-0.03,0,0.01,0.04,1,0.04,-0.01,-0.07,0,0.62,-0.82,-0.1,2.39,-2.92,1000,1038.71,1019.2,1015,21.96,4.46,3.85
37168549,22.04,-0.89,2.32,0.04,0.02,1,0.02,-0.03,0,0.01,0.04,1,0.04,-0.01,-0.07,0,0.62,-0.82,-0.1,2.39,-2.92,1000,1038.71,1019.2,1015,23,4.46,3.91
37169713,22.04,-0.89,2.32,0.04,0.01,1,0.02,0.03,-0.06,0.01,0.04,1,0.04,-0.01,-0.07,0,0.62,-0.82,-0.1,2.39,-2.92,1000,1038.71,1019.2,1015,23,4.46,3.91
37170910,22.04,-0.89,2.32,0.04,0.01,1,0.02,0.03,-0.12,0.01,0.04,1,0.04,-0.01,-0.07,0,0.62,-0.82,-0.1,2.39,-2.92,1000,1038.71,1019.2,1015,23,4.46,3.91
37172056,22.04,-0.89,2.32,0.04,0.02,1,0.02,0.03,-0.06,0.01,0.04,1,0.04,-0.01,-0.07,0,0.62,-0.82,-0.1,2.39,-2.92,1000,1038.71,1019.2,1015,23,4.46,3.86
37175528,22.04,-0.89,2.32,0.04,0.02,1,0.02,-0.03,0,0.01,0.04,1,0.04,-0.01,-0.07,0,0.62,-0.82,-0.1,2.39,-2.92,1000,1038.71,1019.2,1015,21.77,4.46,3.93
37176726,22.04,-0.89,2.32,0.04,0.02,1,0.02,0.03,-0.06,0.01,0.04,1,0.04,-0.01,-0.07,0,0.62,-0.82,-0.1,2.39,-2.92,1000,1038.71,1019.2,1015,21.77,4.46,3.91
37177932,22.04,-0.89,2.32,0.04,0.02,1,0.02,-0.09,-0.06,0.01,0.04,1,0.04,-0.01,-0.07,0,0.62,-0.82,-0.1,2.39,-2.92,1000,1038.71,1019.2,1015,21.77,4.46,3.91
37181415,22.04,-0.89,2.32,0.04,0.01,1,0.02,0.03,-0.06,0.01,0.04,1,0.04,-0.01,-0.07,0,0.62,-0.82,-0.1,2.39,-2.92,1000,1038.71,1019.2,1015,23.47,4.46,3.91
37182578,22.04,-0.89,2.32,0.04,0.02,1,0.08,-0.03,0,0.01,0.04,1,0.04,-0.01,-0.07,0,0.62,-0.82,-0.1,2.39,-2.92,1000,1038.71,1019.2,1015,23.47,4.46,3.9
37183738,22.04,-0.89,2.32,0.04,0.02,1,0.02,-0.03,0,0.01,0.04,1,0.04,-0.01,-0.07,0,0.62,-0.82,-0.1,2.39,-2.92,1000,1038.71,1019.2,1015,23.47,4.46,3.9
37184901,22.04,-0.89,2.32,0.04,0.02,1,-0.04,-0.03,0.06,0.01,0.04,1,0.04,-0.01,-0.07,0,0.62,-0.82,-0.1,2.39,-2.92,1000,1038.71,1019.2,1015,23.47,4.46,3.91
37188388,22.04,-0.89,2.32,0.04,0.02,1,-0.04,-0.03,0,0.01,0.04,1,0.04,-0.01,-0.07,0,0.62,-0.82,-0.1,2.39,-2.92,1000,1038.71,1019.2,1015,22.04,4.46,3.91
37189595,22.04,-0.89,2.32,0.04,0.02,1,0.08,-0.03,-0.06,0.01,0.04,1,0.04,-0.01,-0.07,0,0.62,-0.82,-0.1,2.39,-2.92,1000,1038.71,1019.2,1015,22.04,4.46,3.91
37190779,22.04,-0.89,2.32,0.04,0.02,1,0.08,-0.03,0,0.01,0.04,1,0.04,-0.01,-0.07,0,0.62,-0.82,-0.1,2.39,-2.92,1000,1038.71,1019.2,1015,22.04,4.46,3.91
37195285,22.04,-0.89,2.32,0.04,0.02,1,0.08,0.03,-0.06,0.01,0.04,1,0.04,-0.01,-0.07,0,0.62,-0.82,-0.1,2.39,-2.92,1060.42,1102.05,1082.53,1078.34,22.38,20.61,3.91
37196667,22.04,-0.89,2.32,0.04,0.02,1,0.08,-0.03,-0.06,0.01,0.04,1,0.04,-0.01,-0.07,0,0.62,-0.82,-0.1,2.39,-2.92,1060.42,1102.05,1082.53,1078.34,22.38,20.61,3.9
37199880,22.04,-0.89,2.32,0.04,0.02,1,0.02,-0.03,-0.06,0.01,0.04,1,0.04,-0.01,-0.07,0,0.62,-0.82,-0.1,2.39,-2.92,1060.42,1102.05,1082.53,1078.34,22.7,20.61,3.91
37201135,22.04,-0.89,2.32,0.04,0.02,1,0.02,-0.03,-0.12,0.01,0.04,1,0.04,-0.01,-0.07,0,0.62,-0.82,-0.1,2.39,-2.92,1060.42,1102.05,1082.53,1078.34,22.7,20.61,3.93
37202087,22.04,-0.89,2.32,0.04,0.02,1,0.02,0.03,-0.19,0.01,0.04,1,0.04,-0.01,-0.07,0,0.62,-0.82,-0.1,2.39,-2.92,1060.42,1102.05,1082.53,1078.34,22.7,20.61,3.91
37205248,22.04,-0.89,2.32,0.04,0.02,1,0.02,0.03,-0.06,0.01,0.04,1,0.04,-0.01,-0.07,0,0.62,-0.82,-0.1,2.39,-2.92,1060.42,1102.05,1082.53,1078.34,22.7,20.61,3.91
37206237,22.04,-0.89,2.32,0.04,0.02,1,-0.04,-0.03,0,0.01,0.04,1,0.04,-0.01,-0.07,0,0.62,-0.82,-0.1,2.39,-2.92,1060.42,1102.05,1082.53,1078.34,22.7,20.61,3.9
37207191,22.04,-0.89,2.32,0.04,0.02,1,-0.04,-0.03,0,0.01,0.04,1,0.04,-0.01,-0.07,0,0.62,-0.82,-0.1,2.39,-2.92,1060.42,1102.05,1082.53,1078.34,22.7,20.61,3.9
37207853,22.04,-0.89,2.32,0.04,0.02,1,0.02,-0.03,-0.06,0.01,0.04,1,0.04,-0.01,-0.07,0,0.62,-0.82,-0.1,2.39,-2.92,1060.42,1102.05,1082.53,1078.34,22.7,20.61,3.9
37211290,22.04,-0.89,2.32,0.04,0.02,1,-0.04,0.03,-0.06,0.01,0.04,1,0.04,-0.01,-0.07,0,0.62,-0.82,-0.1,2.39,-2.92,1060.42,1102.05,1082.53,1078.34,22.44,20.61,3.91
37212548,22.04,-0.89,2.32,0.04,0.02,1,0.02,-0.03,-0.06,0.01,0.04,1,0.04,-0.01,-0.07,0,0.62,-0.82,-0.1,2.39,-2.92,1060.42,1102.05,1082.53,1078.34,22.44,20.61,3.91
37213912,22.04,-0.89,2.32,0.04,0.02,1,-0.04,-0.09,-0.06,0.01,0.04,1,0.04,-0.01,-0.07,0,0.62,-0.82,-0.1,2.39,-2.92,1060.42,1102.05,1082.53,1078.34,22.44,20.61,3.9
37217051,22.04,-0.89,2.32,0.04,0.02,1,0.02,-0.03,-0.06,0.01,0.04,1,0.04,-0.01,-0.07,0,0.62,-0.82,-0.1,2.39,-2.92,1060.42,1102.05,1082.53,1078.34,22.44,20.61,3.9
37222091,22.04,-0.89,2.32,0.04,0.02,1,0.02,-0.03,-0.06,0.01,0.04,1,0.04,-0.01,-0.07,0,0.62,-0.82,-0.1,2.39,-2.92,1060.42,1102.05,1082.53,1078.34,23.41,20.61,3.91
37225708,22.04,-0.89,2.32,0.04,0.02,1,0.02,-0.03,-0.06,0.01,0.04,1,0.04,-0.01,-0.07,0,0.62,-0.82,-0.1,2.39,-2.92,1060.42,1102.05,1082.53,1078.34,23.41,20.61,3.91
37230790,22.04,-0.89,2.32,0.04,0.02,1,0.02,-0.03,-0.06,0.01,0.04,1,0.04,-0.01,-0.07,0,0.62,-0.82,-0.1,2.39,-2.92,1060.42,1102.05,1082.53,1078.34,22.03,20.61,3.92
37243084,22.04,-0.89,2.32,0.04,0.02,1,-0.04,0.03,-0.12,0.01,0.04,1,0.04,-0.01,-0.07,0,0.62,-0.82,-0.1,2.39,-2.92,1060.42,1102.05,1082.53,1078.34,22.03,20.61,3.88
37246690,22.04,-0.89,2.32,0.04,0.02,1,0.02,-0.09,-0.06,0.01,0.04,1,0.04,-0.01,-0.07,0,0.62,-0.82,-0.1,2.39,-2.92,1060.42,1102.05,1082.53,1078.34,21.23,20.61,3.92
37247917,22.04,-0.89,2.32,0.04,0.02,1,-0.04,0.03,-0.06,0.01,0.04,1,0.04,-0.01,-0.07,0,0.62,-0.82,-0.1,2.39,-2.92,1060.42,1102.05,1082.53,1078.34,21.23,20.61,3.91
37248838,22.04,-0.89,2.32,0.04,0.02,1,0.02,0.03,-0.06,0.01,0.04,1,0.04,-0.01,-0.07,0,0.62,-0.82,-0.1,2.39,-2.92,1060.42,1102.05,1082.53,1078.34,21.23,20.61,3.9
37252382,22.04,-0.89,2.32,0.04,0.02,1,0.02,-0.03,-0.06,0.01,0.04,1,0.04,-0.01,-0.07,0,0.62,-0.82,-0.1,2.39,-2.92,1060.42,1102.05,1082.53,1078.34,21.82,20.61,3.91
37253921,22.04,-0.89,2.32,0.04,0.02,1,0.02,-0.03,-0.06,0.01,0.04,1,0.04,-0.01,-0.07,0,0.62,-0.82,-0.1,2.39,-2.92,1060.42,1102.05,1082.53,1078.34,21.82,20.61,3.9
37254960,22.04,-0.89,2.32,0.04,0.02,1,0.02,-0.03,-0.06,0.01,0.04,1,0.04,-0.01,-0.07,0,0.62,-0.82,-0.1,2.39,-2.92,1060.42,1102.05,1082.53,1078.34,21.82,20.61,3.91
37258398,22.04,-0.89,2.32,0.04,0.02,1,0.02,-0.03,0,0.01,0.04,1,0.04,-0.01,-0.07,0,0.62,-0.82,-0.1,2.39,-2.92,1060.42,1102.05,1082.53,1078.34,21.77,20.61,3.91
37259607,22.04,-0.89,2.32,0.04,0.02,1,0.02,-0.03,0,0.01,0.04,1,0.04,-0.01,-0.07,0,0.62,-0.82,-0.1,2.39,-2.92,1060.42,1102.05,1082.53,1078.34,21.77,20.61,3.91
37260534,22.04,-0.89,2.32,0.04,0.02,1,0.02,-0.09,0,0.01,0.04,1,0.04,-0.01,-0.07,0,0.62,-0.82,-0.1,2.39,-2.92,1060.42,1102.05,1082.53,1078.34,21.77,20.61,3.91
37261191,22.04,-0.89,2.32,0.04,0.02,1,0.02,-0.03,0,0.01,0.04,1,0.04,-0.01,-0.07,0,0.62,-0.82,-0.1,2.39,-2.92,1060.42,1102.05,1082.53,1078.34,21.77,20.61,3.9
37264550,22.04,-0.89,2.32,0.04,0.02,1,0.08,0.03,0,0.01,0.04,1,0.04,-0.01,-0.07,0,0.62,-0.82,-0.1,2.39,-2.92,1060.42,1102.05,1082.53,1078.34,21.15,20.61,3.91
37265749,22.04,-0.89,2.32,0.04,0.02,1,0.02,-0.03,0,0.01,0.04,1,0.04,-0.01,-0.07,0,0.62,-0.82,-0.1,2.39,-2.92,1060.42,1102.05,1082.53,1078.34,21.15,20.61,3.91
37266692,22.04,-0.89,2.32,0.04,0.02,1,0.02,-0.09,-0.06,0.01,0.04,1,0.04,-0.01,-0.07,0,0.62,-0.82,-0.1,2.39,-2.92,1060.42,1102.05,1082.53,1078.33,21.15,20.61,3.91
37270253,22.04,-0.89,2.32,0.04,0.02,1,0.02,0.03,0,0.01,0.04,1,0.04,-0.01,-0.07,0,0.62,-0.82,-0.1,2.39,-2.92,1060.42,1102.05,1082.53,1078.33,21.28,20.61,3.91
37271456,22.04,-0.89,2.32,0.04,0.02,1,0.02,0.03,-0.06,0.01,0.04,1,0.04,-0.01,-0.07,0,0.62,-0.82,-0.1,2.39,-2.92,1060.42,1102.05,1082.53,1078.33,21.28,20.61,3.91
37272372,22.04,-0.89,2.32,0.04,0.02,1,0.02,0.03,-0.06,0.01,0.04,1,0.04,-0.01,-0.07,0,0.62,-0.82,-0.1,2.39,-2.92,1060.42,1102.05,1082.53,1078.33,21.28,20.61,3.89
37273038,22.04,-0.89,2.32,0.04,0.02,1,-0.04,-0.03,-0.06,0.01,0.04,1,0.04,-0.01,-0.07,0,0.62,-0.82,-0.1,2.39,-2.92,1060.42,1102.05,1082.53,1078.33,21.28,20.61,3.91
37276388,22.04,-0.89,2.32,0.04,0.02,1,0.02,-0.09,0,0.01,0.04,1,0.04,-0.01,-0.07,0,0.62,-0.82,-0.1,2.39,-2.92,1060.42,1102.05,1082.53,1078.33,20.38,20.61,3.91
37277573,22.03,-0.89,2.32,0.04,0.02,1,0.02,-0.03,-0.06,0.01,0.04,1,0.04,-0.01,-0.07,0,0.62,-0.82,-0.1,2.39,-2.92,1060.42,1102.05,1082.53,1078.33,20.38,20.61,3.91
37278535,22.03,-0.89,2.32,0.04,0.02,1,0.02,-0.03,-0.12,0.01,0.04,1,0.04,-0.01,-0.07,0,0.62,-0.82,-0.1,2.39,-2.92,1060.42,1102.05,1082.53,1078.33,20.38,20.61,3.91
37282477,22.03,-0.89,2.32,0.04,0.01,1,-0.04,0.03,0,0.01,0.04,1,0.04,-0.01,-0.07,0,0.62,-0.82,-0.1,2.39,-2.92,1060.42,1102.05,1082.53,1078.33,20.38,20.61,3.95
37284761,22.03,-0.89,2.32,0.04,0.02,1,0.08,-0.03,0,0.01,0.04,1,0.04,-0.01,-0.07,0,0.62,-0.82,-0.1,2.39,-2.92,1060.42,1102.05,1082.53,1078.33,20.38,20.61,3.87
37288772,22.03,-0.89,2.32,0.04,0.02,1,0.08,0.03,0,0.01,0.04,1,0.04,-0.01,-0.07,0,0.62,-0.82,-0.1,2.39,-2.92,1180.42,1222.05,1202.53,1198.33,23.54,51.21,3.92
37290024,22.03,-0.89,2.32,0.04,0.02,1,-0.04,-0.03,-0.06,0.01,0.04,1,0.04,-0.01,-0.07,0,0.62,-0.82,-0.1,2.39,-2.92,1180.42,1222.05,1202.53,1198.33,23.54,51.21,3.92
37290990,22.03,-0.89,2.32,0.04,0.02,1,0.02,-0.03,-0.06,0.01,0.04,1,0.04,-0.01,-0.07,0,0.62,-0.82,-0.1,2.39,-2.92,1180.42,1222.05,1202.53,1198.33,23.54,51.21,3.91
37294407,22.03,-0.89,2.32,0.04,0.02,1,0.08,-0.03,-0.06,0.01,0.04,1,0.04,-0.01,-0.07,0,0.62,-0.82,-0.1,2.39,-2.92,1180.42,1222.05,1202.53,1198.33,23.19,51.21,3.91
37295548,22.03,-0.89,2.32,0.04,0.02,1,0.02,-0.09,-0.06,0.01,0.04,1,0.04,-0.01,-0.07,0,0.62,-0.82,-0.1,2.39,-2.92,1180.42,1222.05,1202.53,1198.33,23.19,51.21,3.91
37296663,22.03,-0.89,2.32,0.04,0.02,1,0.02,-0.09,-0.06,0.01,0.04,1,0.04,-0.01,-0.07,0,0.62,-0.82,-0.1,2.39,-2.92,1180.42,1222.05,1202.53,1198.33,23.19,51.21,3.89
37297541,22.03,-0.89,2.32,0.04,0.02,1,0.02,-0.03,0,0.01,0.04,1,0.04,-0.01,-0.07,0,0.62,-0.82,-0.1,2.39,-2.92,1180.42,1222.05,1202.53,1198.33,23.19,51.21,3.91
37300929,22.03,-0.89,2.32,0.04,0.02,1,0.02,-0.03,0,0.01,0.04,1,0.04,-0.01,-0.07,0,0.62,-0.82,-0.1,2.39,-2.92,1180.42,1222.05,1202.53,1198.33,22.4,51.21,3.91
37302109,22.03,-0.89,2.32,0.04,0.02,1,0.02,0.03,0,0.01,0.04,1,0.04,-0.01,-0.07,0,0.62,-0.82,-0.1,2.39,-2.92,1180.42,1222.05,1202.53,1198.33,22.4,51.21,3.91
37303051,22.03,-0.89,2.32,0.04,0.02,1,0.08,0.03,0,0.01,0.04,1,0.04,-0.01,-0.07,0,0.62,-0.82,-0.1,2.39,-2.92,1180.42,1222.05,1202.53,1198.33,22.4,51.21,3.91
37306205,22.04,-0.89,2.32,0.04,0.02,1,0.02,0.03,-0.06,0.01,0.04,1,0.04,-0.01,-0.07,0,0.62,-0.82,-0.1,2.39,-2.92,1180.42,1222.05,1202.53,1198.33,23.04,51.21,3.91
37307636,22.04,-0.89,2.32,0.04,0.02,1,0.08,-0.03,-0.06,0.01,0.04,1,0.04,-0.01,-0.07,0,0.62,-0.82,-0.1,2.39,-2.92,1180.42,1222.05,1202.53,1198.33,23.04,51.21,3.91
37308548,22.04,-0.89,2.32,0.04,0.02,1,0.08,-0.03,-0.06,0.01,0.04,1,0.04,-0.01,-0.07,0,0.62,-0.82,-0.1,2.39,-2.92,1180.42,1222.05,1202.53,1198.33,23.04,51.21,3.91
37309388,22.04,-0.89,2.32,0.04,0.02,1,0.08,-0.03,-0.06,0.01,0.04,1,0.04,-0.01,-0.07,0,0.62,-0.82,-0.1,2.39,-2.92,1180.42,1222.05,1202.53,1198.33,23.04,51.21,3.91
37312765,22.04,-0.89,2.32,0.04,0.02,1,-0.04,-0.03,0,0.01,0.04,1,0.04,-0.01,-0.07,0,0.62,-0.82,-0.1,2.39,-2.92,1180.42,1222.05,1202.53,1198.33,21.36,51.21,3.91
37314014,22.04,-0.89,2.32,0.04,0.02,1,0.08,0.03,-0.06,0.01,0.04,1,0.04,-0.01,-0.07,0,0.62,-0.82,-0.1,2.39,-2.92,1180.42,1222.05,1202.53,1198.33,21.36,51.21,3.9
37315168,22.03,-0.89,2.32,0.04,0.02,1,0.02,0.03,-0.06,0.01,0.04,1,0.04,-0.01,-0.07,0,0.62,-0.82,-0.1,2.39,-2.92,1180.42,1222.05,1202.53,1198.33,21.36,51.21,3.91
37320427,22.04,-0.89,2.32,0.04,0.02,1,-0.04,-0.09,0,0.01,0.04,1,0.04,-0.01,-0.07,0,0.62,-0.82,-0.1,2.39,-2.92,1180.42,1222.05,1202.53,1198.33,23.4,51.21,3.91
37323658,22.04,-0.89,2.32,0.04,0.02,1,0.02,-0.03,-0.06,0.01,0.04,1,0.04,-0.01,-0.07,0,0.62,-0.82,-0.1,2.39,-2.92,1180.42,1222.05,1202.53,1198.33,23.4,51.21,3.91
37328726,22.04,-0.89,2.32,0.04,0.02,1,0.02,0.03,-0.12,0.01,0.04,1,0.04,-0.01,-0.07,0,0.62,-0.82,-0.1,2.39,-2.92,1180.42,1222.05,1202.53,1198.33,22.42,51.21,3.91
37332020,22.04,-0.89,2.32,0.04,0.02,1,-0.04,-0.03,-0.06,0.01,0.04,1,0.04,-0.01,-0.07,0,0.62,-0.82,-0.1,2.39,-2.92,1180.42,1222.05,1202.53,1198.33,22.42,51.21,3.91
37346616,22.04,-0.89,2.32,0.04,0.02,1,0.02,-0.03,-0.06,0.01,0.04,1,0.04,-0.01,-0.07,0,0.62,-0.82,-0.1,2.39,-2.92,1180.42,1222.05,1202.53,1198.33,21.84,51.21,3.91
37350237,22.03,-0.89,2.32,0.04,0.02,1,0.08,-0.03,-0.06,0.01,0.04,1,0.04,-0.01,-0.07,0,0.62,-0.82,-0.1,2.39,-2.92,1180.42,1222.05,1202.53,1198.33,21.4,51.21,3.91
37351413,22.03,-0.89,2.32,0.04,0.02,1,0.14,0.03,0,0.01,0.04,1,0.04,-0.01,-0.07,0,0.62,-0.82,-0.1,2.39,-2.92,1180.42,1222.05,1202.53,1198.33,21.4,51.21,3.91
37352325,22.03,-0.89,2.32,0.04,0.02,1,0.08,-0.03,0,0.01,0.04,1,0.04,-0.01,-0.07,0,0.62,-0.82,-0.1,2.39,-2.92,1180.42,1222.05,1202.53,1198.33,21.4,51.21,3.85
37355462,22.03,-0.89,2.32,0.04,0.02,1,0.02,0.03,0.06,0.01,0.04,1,0.04,-0.01,-0.07,0,0.62,-0.82,-0.1,2.39,-2.92,1180.42,1222.05,1202.53,1198.33,22.44,51.21,3.91
37356978,22.03,-0.89,2.32,0.04,0.02,1,0.02,0.03,0,0.01,0.04,1,0.04,-0.01,-0.07,0,0.62,-0.82,-0.1,2.39,-2.92,1180.42,1222.05,1202.53,1198.33,22.44,51.21,3.92
37357872,22.03,-0.89,2.32,0.04,0.02,1,0.08,0.03,0,0.01,0.04,1,0.04,-0.01,-0.07,0,0.62,-0.82,-0.1,2.39,-2.92,1180.42,1222.05,1202.53,1198.33,22.44,51.21,3.91
37361109,22.03,-0.89,2.32,0.04,0.02,1,-0.04,-0.03,-0.06,0.01,0.04,1,0.04,-0.01,-0.07,0,0.62,-0.82,-0.1,2.39,-2.92,1180.42,1222.05,1202.53,1198.33,22.52,51.21,3.91
37362107,22.03,-0.89,2.32,0.04,0.02,1,-0.04,0.03,-0.06,0.01,0.04,1,0.04,-0.01,-0.07,0,0.62,-0.82,-0.1,2.39,-2.92,1180.42,1222.05,1202.53,1198.33,22.52,51.21,3.91
37362982,22.03,-0.89,2.32,0.04,0.02,1,-0.04,-0.03,0,0.01,0.04,1,0.04,-0.01,-0.07,0,0.62,-0.82,-0.1,2.39,-2.92,1180.42,1222.05,1202.53,1198.33,22.52,51.21,3.9
37363687,22.03,-0.89,2.32,0.04,0.02,1,-0.04,-0.03,0,0.01,0.04,1,0.04,-0.01,-0.07,0,0.62,-0.82,-0.1,2.39,-2.92,1180.42,1222.05,1202.53,1198.33,22.52,51.21,3.91
37367283,22.03,-0.89,2.32,0.04,0.01,1,0.08,-0.09,-0.06,0.01,0.04,1,0.04,-0.01,-0.07,0,0.62,-0.82,-0.1,2.39,-2.92,1180.42,1222.05,1202.53,1198.33,22.52,51.21,3.85
37368490,22.03,-0.89,2.32,0.02,0.01,0.99,0.45,-0.15,0.06,0.01,0.04,1,0.04,-0.01,-0.07,0,0.62,-0.82,-0.1,2.39,-2.92,1180.42,1222.05,1202.53,1198.33,22.52,51.21,3.88
37369645,22.03,-0.89,2.32,0.1,0.03,1,0.63,0.46,0.67,0.01,0.04,1,0.04,-0.01,-0.06,0,0.62,-0.82,-0.1,2.39,-2.92,1180.42,1222.05,1202.53,1198.33,22.52,51.21,3.87
37370496,22.03,-0.89,2.32,0.04,0.01,1.03,-0.83,0.58,0.55,0.01,0.04,1,0.04,-0.01,-0.06,0,0.62,-0.82,-0.1,2.39,-2.92,1180.42,1222.05,1202.53,1198.33,22.52,51.21,3.88
37373947,22.03,-0.89,2.32,0.15,0.01,0.96,-1.5,1.31,-1.1,0.01,0.04,1,0.04,-0.01,-0.06,0,0.62,-0.82,-0.1,2.39,-2.92,1180.42,1222.05,1202.53,1198.33,21.68,51.21,3.9
37375148,22.03,-0.89,2.32,0.06,-0.03,0.95,0.69,3.26,0.79,0.01,0.04,1,0.04,-0.01,-0.06,0,0.62,-0.82,-0.1,2.39,-2.92,1180.42,1222.05,1202.53,1198.33,21.68,51.21,3.73
37376076,22.03,-0.89,2.32,-0.04,-0.04,0.97,3.32,0.7,1.16,0.01,0.04,1,0.04,-0.01,-0.06,0,0.62,-0.82,-0.1,2.39,-2.92,1180.42,1222.05,1202.53,1198.33,21.68,51.21,3.86
37379247,22.03,-0.89,2.32,0.06,0.07,1.06,-2.85,0.88,-0.31,0.01,0.04,1,0.04,-0.01,-0.06,0,0.62,-0.82,-0.1,2.39,-2.92,1180.42,1222.05,1202.53,1198.33,23.55,51.21,3.86
37380644,22.03,-0.89,2.32,-0.01,0.03,1.05,3.56,-2.78,1.28,0.01,0.04,1,0.04,-0.01,-0.06,0,0.62,-0.82,-0.1,2.39,-2.92,1180.42,1222.05,1202.53,1198.33,23.55,51.21,3.73
37381572,22.03,-0.89,2.32,0.06,0.02,0.94,-1.93,-0.58,1.83,0.01,0.04,1,0.04,-0.01,-0.06,0,0.62,-0.82,-0.1,2.39,-2.92,1180.42,1222.05,1202.53,1198.33,23.55,51.21,3.8
37382363,22.03,-0.89,2.32,0.01,-0.04,0.93,-5.53,1.19,0.79,0.01,0.04,1,0.04,-0.01,-0.06,0,0.62,-0.82,-0.1,2.39,-2.92,1180.42,1222.05,1202.53,1198.33,23.55,51.21,3.63
37385728,22.03,-0.89,2.32,0.11,0.04,0.97,0.08,3.33,-0.61,0.01,0.04,1,0.04,-0.01,-0.06,0,0.62,-0.82,-0.1,2.39,-2.92,1180.42,1222.05,1202.54,1198.33,21.84,51.21,3.69
37386973,22.03,-0.89,2.32,0,-0.05,0.96,-2.05,2.78,-1.22,0.01,0.04,1,0.04,-0.01,-0.06,0,0.62,-0.82,-0.1,2.39,-2.92,1180.42,1222.05,1202.54,1198.33,21.84,51.21,3.87
37387947,22.03,-0.89,2.32,0.05,0,0.98,1.67,-0.82,-1.96,0.01,0.04,1,0.04,-0.01,-0.06,0,0.62,-0.82,-0.1,2.39,-2.92,1180.42,1222.05,1202.54,1198.33,21.84,51.21,3.76
37391363,22.03,-0.89,2.32,-0.03,0.02,1.03,3.87,-0.4,-3.18,0.01,0.04,1,0.04,-0.01,-0.06,0,0.62,-0.82,-0.1,2.39,-2.92,1180.42,1222.05,1202.54,1198.33,21.95,51.21,3.73
37392605,22.03,-0.89,2.32,0.02,0.15,1.03,-0.34,-1.19,1.46,0.01,0.04,1,0.04,-0.01,-0.06,0,0.62,-0.82,-0.1,2.39,-2.92,1180.42,1222.05,1202.54,1198.33,21.95,51.21,3.86
37393560,22.03,-0.89,2.32,-0.06,0.02,1.12,0.14,-1.74,3.35,0.01,0.04,1,0.04,-0.01,-0.06,0,0.62,-0.82,-0.1,2.39,-2.92,1180.42,1222.05,1202.54,1198.33,21.95,51.21,3.85
37394261,22.03,-0.89,2.32,0.02,0.1,1.06,0.69,-0.34,4.57,0.01,0.04,1,0.04,-0.01,-0.06,0,0.62,-0.82,-0.1,2.39,-2.92,1180.42,1222.05,1202.54,1198.33,21.95,51.21,3.79
37397659,22.03,-0.89,2.32,-0.02,-0.1,0.98,-1.26,-2.05,4.15,0.01,0.04,1,0.04,-0.01,-0.06,0,0.62,-0.82,-0.1,2.39,-2.92,1180.42,1222.05,1202.54,1198.33,21.32,51.21,3.81
37398891,22.03,-0.89,2.32,0.08,-0.07,0.89,-3.82,-0.52,4.76,0.01,0.04,1,0.04,-0.01,-0.06,0,0.62,-0.82,-0.1,2.39,-2.92,1180.42,1222.05,1202.54,1198.33,21.32,51.21,3.72
37399836,22.03,-0.89,2.32,0.13,-0.12,0.91,-7.49,-0.09,3.23,0.01,0.04,1,0.04,-0.01,-0.06,0,0.62,-0.82,-0.1,2.39,-2.92,1180.42,1222.05,1202.54,1198.33,21.32,51.21,3.87
37404322,22.03,-0.89,2.32,0.04,-0.11,0.84,-5.78,0.76,-0.86,0.01,0.04,1,0.04,-0.01,-0.06,0,0.62,-0.82,-0.1,2.39,-2.92,1180.42,1222.05,1202.54,1198.33,21.55,51.21,3.62
37406125,22.03,-0.89,2.32,0.04,-0.05,1.04,0.08,-2.66,-3.97,0.01,0.04,1,0.04,-0.01,-0.06,0,0.62,-0.82,-0.1,2.39,-2.92,1292.08,1333.72,1314.2,1310,21.55,79.69,3.86
37409369,22.03,-0.89,2.32,-0.05,0.04,1.02,2.34,-2.66,-5.62,0.01,0.04,1,0.04,-0.01,-0.06,0,0.62,-0.82,-0.1,2.39,-2.92,1292.08,1333.72,1314.2,1310,21.55,79.69,3.86
37410313,22.03,-0.89,2.32,-0.01,0.08,1.15,1.91,-4.3,-4.21,0.02,0.04,1,0.04,-0.01,-0.06,0,0.62,-0.82,-0.1,2.39,-2.92,1292.08,1333.72,1314.2,1310,21.55,79.69,3.87
37411236,22.03,-0.89,2.32,0.08,0.17,1.16,1.85,0.15,1.03,0.02,0.04,1,0.04,-0.01,-0.06,0,0.62,-0.82,-0.1,2.39,-2.92,1292.08,1333.72,1314.2,1310,21.55,79.69,3.87
37411894,22.03,-0.89,2.32,0.07,0.1,1.15,1.97,2.23,6.96,0.02,0.04,1,0.04,-0.01,-0.06,0,0.62,-0.82,-0.1,2.39,-2.92,1292.08,1333.72,1314.2,1310,21.55,79.69,3.87
37415352,22.03,-0.89,2.32,0.15,0.2,1.06,-1.63,-4.79,2.8,0.01,0.04,1,0.04,-0.01,-0.06,0,0.62,-0.82,-0.1,2.39,-2.92,1292.08,1333.72,1314.2,1310,24.62,79.69,3.76
37416837,22.03,-0.89,2.32,0.08,0.11,1.03,-5.72,1.43,0.61,0.01,0.04,1,0.04,-0.01,-0.06,0,0.62,-0.82,-0.1,2.39,-2.92,1292.08,1333.72,1314.2,1310,24.62,79.69,3.73
37419947,22.03,-0.89,2.32,0.08,-0.01,0.86,1.79,1.43,0.85,0.01,0.04,1,0.04,-0.01,-0.06,0,0.62,-0.82,-0.1,2.39,-2.92,1292.08,1333.72,1314.2,1310,24.62,79.69,3.79
37424986,22.02,-0.89,2.32,0.08,0.12,1.02,0.88,-1.68,-3.73,0.01,0.04,1,0.04,-0.01,-0.06,0,0.62,-0.82,-0.1,2.39,-2.92,1292.08,1333.72,1314.2,1310,11.52,79.69,3.82
37428302,22.02,-0.89,2.32,-0.08,-0.04,1.02,-3.7,-0.34,-2.32,0.01,0.04,1,0.04,-0.01,-0.06,0,0.62,-0.82,-0.1,2.39,-2.92,1292.08,1333.72,1314.2,1310,11.52,79.69,3.76
37433831,22.02,-0.89,2.32,0.06,0.04,1.13,1.36,-3.94,3.29,0.01,0.04,1,0.04,-0.01,-0.06,0,0.62,-0.82,-0.1,2.39,-2.92,1292.08,1333.72,1314.2,1310,24.25,79.69,3.69
37448518,22.02,-0.89,2.32,0.04,0.04,1.01,2.95,-1.19,0.61,0.01,0.04,1,0.04,-0.01,-0.06,0,0.62,-0.82,-0.1,2.39,-2.92,1292.08,1333.72,1314.2,1310,21.75,79.69,3.69
37452138,22.02,-0.89,2.32,0.14,0.05,0.98,-4.13,-0.64,0.42,0.01,0.04,1,0.04,-0.01,-0.06,0,0.62,-0.82,-0.1,2.39,-2.92,1292.08,1333.72,1314.2,1310,21.75,79.69,3.57
37453355,22.02,-0.89,2.32,0.09,0.03,0.94,-5.9,0.82,0.36,0.01,0.04,1,0.04,-0.01,-0.06,0,0.62,-0.82,-0.1,2.39,-2.92,1292.08,1333.72,1314.2,1310,21.75,79.69,3.58
37454523,22.02,-0.89,2.32,0.01,-0.05,1.05,-4.31,-1.5,-0.74,0.01,0.04,1,0.04,-0.01,-0.06,0,0.62,-0.82,-0.1,2.39,-2.92,1292.08,1333.72,1314.2,1310,21.75,79.69,3.62
37457678,22.02,-0.89,2.32,0.04,0.01,0.95,-5.47,0.52,-0.55,0.01,0.04,1,0.04,-0.01,-0.06,0,0.62,-0.82,-0.1,2.39,-2.92,1292.08,1333.72,1314.2,1310,26.81,79.69,3.84
37458750,22.02,-0.89,2.32,0.18,0.15,0.94,-5.9,0.95,-1.16,0.01,0.04,1,0.04,-0.01,-0.06,0,0.62,-0.82,-0.1,2.39,-2.92,1292.08,1333.72,1314.2,1310,26.81,79.69,3.45
37459698,22.02,-0.89,2.32,0.15,0.11,0.96,-9.01,1.98,-2.69,0.01,0.04,1,0.04,-0.01,-0.06,0,0.62,-0.82,-0.1,2.39,-2.92,1292.08,1333.72,1314.2,1310,26.81,79.69,3.56
37460438,22.02,-0.89,2.32,0.03,0.02,1.01,-8.58,-0.82,-3.48,0.01,0.04,1,0.04,-0.01,-0.06,0,0.62,-0.82,-0.1,2.39,-2.92,1292.08,1333.72,1314.2,1310,26.81,79.69,3.54
37463863,22.02,-0.89,2.32,0.1,0.09,1.02,-6.02,-2.84,3.48,0.01,0.04,1,0.04,-0.01,-0.06,0,0.62,-0.82,-0.1,2.39,-2.92,1292.08,1333.72,1314.2,1310,14.66,79.69,3.31
37465071,22.01,-0.89,2.32,0.13,0.22,0.93,-7.79,0.09,2.74,0.01,0.04,1,0.04,-0.01,-0.06,0,0.62,-0.82,-0.1,2.39,-2.92,1292.08,1333.72,1314.2,1310,14.66,79.69,3.74
37466377,22.01,-0.89,2.32,-0.07,-0.05,1.07,-9.56,-0.76,-0.67,0.01,0.04,1,0.04,-0.01,-0.06,0,0.62,-0.82,-0.1,2.39,-2.92,1292.08,1333.72,1314.2,1310,14.66,79.69,3.71
37469809,22.01,-0.89,2.32,0.19,0.32,0.98,-12.49,0.46,7.2,0.01,0.04,1,0.04,-0.01,-0.06,0,0.62,-0.82,-0.1,2.39,-2.92,1292.08,1333.72,1314.2,1310,24.26,79.69,3.59
37471053,22.01,-0.89,2.32,0.08,0.1,1,-15.24,-0.28,0.06,0.01,0.04,1,0.04,-0.01,-0.06,0,0.62,-0.82,-0.1,2.39,-2.92,1292.08,1333.72,1314.2,1310,24.26,79.69,3.3
37472274,22.01,-0.89,2.32,0.07,-0.25,1.07,-12.55,-2.11,0.61,0.01,0.04,1,0.04,-0.01,-0.06,0,0.62,-0.82,-0.1,2.39,-2.92,1292.08,1333.72,1314.2,1310,24.26,79.69,3.32
37475701,22.01,-0.89,2.32,-0.16,0.04,0.96,-21.1,-0.76,-8.55,0.01,0.04,1,0.04,-0.01,-0.06,0,0.62,-0.82,-0.1,2.39,-2.92,1292.08,1333.72,1314.2,1310,20.28,79.69,3.59
37476968,22.01,-0.89,2.32,-0.04,-0.15,1.07,-19.51,-7.6,-1.83,0.01,0.04,1,0.04,-0.01,-0.06,0,0.62,-0.82,-0.1,2.39,-2.92,1292.08,1333.72,1314.2,1310,20.28,79.69,3.33
37478215,22.01,-0.89,2.32,0.34,0.31,0.93,-29.03,3.75,8.18,0.01,0.04,1,0.04,-0.01,-0.06,0,0.62,-0.82,-0.1,2.39,-2.92,1292.08,1333.72,1314.2,1310,20.28,79.69,3.63
37481654,22.01,-0.89,2.32,-0.04,-0.18,1.09,-27.63,-3.27,7.81,0.01,0.04,1,0.04,-0.01,-0.06,0,0.62,-0.82,-0.1,2.39,-2.92,1292.08,1333.72,1314.2,1310,11.37,79.69,3.6
37482901,22,-0.89,2.32,0.17,0.12,0.87,-32.63,5.64,9.09,0.01,0.04,1,0.04,-0.01,-0.06,0,0.62,-0.82,-0.1,2.39,-2.92,1292.08,1333.72,1314.2,1310,11.37,79.69,3.64
37484100,22,-0.89,2.32,0.02,0.16,1.2,-31.66,-11.26,-4.7,0.01,0.04,1,0.04,-0.01,-0.06,0,0.62,-0.82,-0.1,2.39,-2.92,1292.08,1333.72,1314.2,1310,11.37,79.69,3.53
37487531,22.01,-0.89,2.32,0.04,0.18,0.92,-40.2,8.7,-8.85,0.01,0.04,1,0.04,-0.01,-0.06,0,0.62,-0.82,-0.1,2.39,-2.92,1292.08,1333.72,1314.2,1309.99,42.43,79.69,3.59
37488742,22.02,-0.89,2.32,-0.24,0.26,1.13,-38.8,-5.71,-5.5,0.01,0.04,1,0.04,-0.01,-0.06,0,0.62,-0.82,-0.1,2.39,-2.92,1292.08,1333.72,1314.21,1309.99,42.43,79.69,3.48
37490024,22.02,-0.89,2.32,0.46,-0.11,0.92,-39.47,-4.3,7.75,0.01,0.04,1,0.04,-0.01,-0.06,0,0.62,-0.82,-0.1,2.39,-2.92,1292.08,1333.72,1314.21,1309.99,42.43,79.69,3.63
37494566,22.04,-0.89,2.32,-0.49,-0.07,0.95,-42.03,-3.69,11.96,0.01,0.04,1,0.04,-0.01,-0.06,0,0.62,-0.82,-0.1,2.39,-2.92,1292.08,1333.72,1314.21,1309.99,46.5,79.69,3.34
37496229,22.05,-0.89,2.32,0.64,0.31,1.14,-51.68,-7.9,-10.38,0.01,0.04,1,0.04,-0.01,-0.06,0,0.62,-0.82,-0.1,2.39,-2.92,1307.08,1348.72,1329.21,1324.99,46.5,83.51,3.72
37499494,22.07,-0.89,2.32,0.65,0.6,1.1,-62.05,-0.21,-5.31,0.01,0.04,1,0.04,-0.01,-0.06,0,0.62,-0.82,-0.1,2.39,-2.92,1307.08,1348.72,1329.21,1324.99,45.08,83.51,3.4
37501061,22.07,-0.89,2.32,-0.46,-0.57,0.88,-41.79,-9.98,-8.36,0.01,0.04,1,0.04,-0.01,-0.06,0,0.62,-0.82,-0.1,2.39,-2.92,1307.08,1348.72,1329.21,1324.99,45.08,83.51,3.48
37502047,22.08,-0.89,2.32,1.22,0.36,1.1,-60.95,-2.29,-11.84,0.01,0.04,1,0.04,-0.01,-0.06,0,0.62,-0.82,-0.1,2.39,-2.92,1307.08,1348.72,1329.21,1324.99,45.08,83.51,3.61
37505259,22.08,-0.89,2.32,-0.11,-0.33,1.15,-30.62,-21.7,-15.57,0.01,0.04,1,0.04,-0.01,-0.06,0,0.62,-0.82,-0.1,2.39,-2.92,1307.08,1348.72,1329.21,1324.99,22.42,83.51,3.72
37506303,22.08,-0.89,2.32,0.73,0.59,1.3,-75.66,-12.12,-9.1,0.01,0.04,1,0.04,-0.01,-0.06,0,0.62,-0.82,-0.1,2.39,-2.92,1307.08,1348.72,1329.21,1324.99,22.42,83.51,3.32
37507237,22.08,-0.89,2.32,0.21,0.24,0.83,-91.47,10.59,0,0.01,0.04,1,0.04,-0.01,-0.06,0,0.62,-0.82,-0.1,2.39,-2.92,1307.08,1348.72,1329.21,1324.99,22.42,83.51,3.46
37511288,22.09,-0.89,2.32,0.88,-0.25,0.84,-69.44,5.52,-13.86,0.01,0.05,1,0.04,-0.01,-0.06,0,0.62,-0.82,-0.1,2.39,-2.92,1307.08,1348.72,1329.21,1324.99,36.35,83.51,3.45
37512567,22.09,-0.89,2.32,0.8,-0.63,1.31,-49.72,3.14,-9.22,0.02,0.05,1,0.04,-0.01,-0.06,0,0.62,-0.82,-0.1,2.39,-2.92,1307.08,1348.72,1329.21,1324.99,36.35,83.51,3.52
37513718,22.1,-0.89,2.32,-0.72,0.11,1.22,-3.52,-19.99,-15.69,0.02,0.05,1,0.04,-0.01,-0.06,0,0.62,-0.82,-0.1,2.39,-2.92,1307.08,1348.72,1329.21,1324.99,36.35,83.51,3.58
37514513,22.1,-0.89,2.32,1.9,-0.08,1.3,-12.43,7.29,-13.61,0.02,0.05,1,0.04,-0.01,-0.06,0,0.62,-0.82,-0.1,2.39,-2.92,1307.08,1348.72,1329.21,1324.99,36.35,83.51,3.63
37518106,22.11,-0.89,2.33,0.43,0.05,0.87,23.4,-17.98,-17.64,0.02,0.05,1,0.04,-0.01,-0.06,0,0.62,-0.82,-0.1,2.39,-2.92,1307.08,1348.72,1329.21,1324.99,44.21,83.51,3.69
37521534,22.12,-0.89,2.33,-0.35,-0.26,0.92,26.63,-10.59,-20.75,0.02,0.05,1,0.04,-0.01,-0.06,0,0.62,-0.82,-0.1,2.39,-2.92,1307.08,1348.72,1329.21,1324.99,44.21,83.51,3.74
37526767,22.15,-0.89,2.33,0.09,0.52,0.56,-12.55,-14.19,3.84,0.02,0.05,1,0.04,-0.01,-0.06,0,0.62,-0.82,-0.1,2.39,-2.92,1307.07,1348.73,1329.21,1324.99,49.99,83.51,3.68
37530089,22.17,-0.89,2.33,0.33,0.63,0.73,-5.23,-2.9,4.27,0.02,0.05,1,0.04,-0.01,-0.06,0,0.62,-0.82,-0.1,2.39,-2.92,1307.07,1348.73,1329.21,1324.99,49.99,83.51,3.61
37535254,22.2,-0.89,2.33,-1.06,0.59,0.61,19.49,-9.13,-5.31,0.02,0.05,1,0.03,-0.01,-0.06,0,0.62,-0.83,-0.1,2.39,-2.92,1307.07,1348.73,1329.21,1324.99,52.12,83.51,3.73
